Name,Location,URL,Category,Latitude,Longitude,Platform,Members,GroupImage
AWS  User Group Timisoara,"Timisoara, Romania",https://www.meetup.com/aws-timisoara,General AWS User Groups,45.7538355,21.2257474,meetup,553,https://secure.meetupstatic.com/photos/event/8/9/a/8/600_513815240.jpeg
IASI AWS User Group,"Iasi, Romania",https://www.meetup.com/aws-ro/,General AWS User Groups,47.1615598,27.5837814,meetup,591,https://secure.meetupstatic.com/photos/event/e/0/e/600_510303598.jpeg
User Group Tulsa,"Tulsa, OK",https://www.meetup.com/tulsa-aws/,General AWS User Groups,36.1563122,-95.9927516,meetup,166,https://secure.meetupstatic.com/photos/event/5/0/d/1/600_523520689.jpeg
AWS Abidjan User Group,"Abidjan, Ivory Coast",https://www.meetup.com/groupe-meetup-abidjan-amazon-web-services/,General AWS User Groups,5.320357,-4.016107,meetup,444,https://secure.meetupstatic.com/photos/event/4/f/8/e/600_513740366.jpeg
AWS Accra,"Accra, Ghana",https://www.meetup.com/aws-accra/,General AWS User Groups,5.5571096,-0.2012376,meetup,2595,https://secure.meetupstatic.com/photos/event/2/9/a/9/600_504010665.jpeg
AWS Amsterdam,"Amsterdam, The Netherlands",https://www.meetup.com/aws-ams/,General AWS User Groups,52.3730796,4.8924534,meetup,4627,https://secure.meetupstatic.com/photos/event/5/9/8/1/600_519082913.jpeg
AWS Arizona,"Phoenix, Arizona, USA",https://www.meetup.com/AWSArizona/,General AWS User Groups,33.4484367,-112.074141,meetup,2298,https://secure.meetupstatic.com/photos/event/2/a/a/6/600_480070918.jpeg
AWS Bath User Group,"Bath, United Kingdom",https://www.meetup.com/AWSBathUserGroup/,General AWS User Groups,51.3813864,-2.3596963,meetup,,
AWS Bilbao,"Bilbao, Spain",https://www.meetup.com/AWS-Bilbao/,General AWS User Groups,43.2630018,-2.9350039,meetup,692,https://secure.meetupstatic.com/photos/event/d/6/5/a/600_503994874.jpeg
AWS Budapest Community of Practice,"Budapest, Hungary",https://www.meetup.com/AWS-Budapest-CoP/,General AWS User Groups,47.4813896,19.1460941,meetup,1091,https://secure.meetupstatic.com/photos/event/9/f/3/2/600_504460754.jpeg
AWS Bulgaria,"Sofia, Bulgaria",https://www.meetup.com/AWS-Bulgaria/,General AWS User Groups,42.6792938,23.3011089,meetup,2218,https://secure.meetupstatic.com/photos/event/8/3/9/8/600_487113688.jpeg
AWS Cambridge Meetup Group,"Cambridge, United Kingdom",https://www.meetup.com/AWS-Amazon-Web-Services-Cambridge-Meetup-Group/,General AWS User Groups,52.2055314,0.1186637,meetup,1497,https://secure.meetupstatic.com/photos/event/7/e/1/a/600_494432282.jpeg
AWS Charlotte User Group,"Charlotte, North Carolina, USA",https://www.meetup.com/AWS-Charlotte-User-Group/,General AWS User Groups,35.2272086,-80.8430827,meetup,1076,https://secure.meetupstatic.com/photos/event/3/5/8/1/600_489133697.jpeg
AWS Cleveland User Group,"Cleveland, USA",https://www.meetup.com/cleveland-aws-meetup/,General AWS User Groups,41.4996574,-81.6936772,meetup,712,https://secure.meetupstatic.com/photos/event/a/e/f/1/600_510104785.jpeg
AWS Cloud Security - NoVA,"Arlington, VA, USA",https://www.meetup.com/aws-security-nova/,General AWS User Groups,38.8769326,-77.0893094,meetup,2149,https://secure.meetupstatic.com/photos/event/7/8/1/0/600_519990736.jpeg
AWS Cloud Security User Group West Africa,"Lagos, Nigeria",https://www.meetup.com/aws-cloud-security-user-group-west-africa/,General AWS User Groups,6.4550575,3.3941795,meetup,5236,https://secure.meetupstatic.com/photos/event/1/4/a/2/600_506225282.jpeg
AWS Colombia Bogota,"Bogotá, Colombia",https://www.meetup.com/AWS-Colombia-bogota/,General AWS User Groups,4.7110053,-74.0720857,meetup,2438,https://secure.meetupstatic.com/photos/event/b/0/e/b/600_503985291.jpeg
AWS Dallas,"Dallas, Texas, USA",https://www.meetup.com/AWS-Dallas/,General AWS User Groups,32.7762719,-96.7968559,meetup,5011,https://secure.meetupstatic.com/photos/event/d/9/e/e/600_488575790.jpeg
AWS Data Engineer User Group India,India,https://www.meetup.com/aws-usergroup-data-india/,General AWS User Groups,22.3511148,78.6677428,meetup,786,https://secure.meetupstatic.com/photos/event/e/6/d/b/600_521219099.jpeg
AWS Dubai,"Dubai, United Arab Emirates",https://www.meetup.com/AWS-Dubai/,General AWS User Groups,25.2277355,55.1749996,meetup,3242,https://secure.meetupstatic.com/photos/event/8/7/6/a/600_496294666.jpeg
AWS Ecuador User Group,"Guayaquil, Ecuador",https://www.meetup.com/aws-ecuador/,General AWS User Groups,-2.1990477,-79.8879772,meetup,905,https://secure.meetupstatic.com/photos/event/b/d/4/0/600_503148448.jpeg
AWS Frederick Meetup,"Frederick, Maryland, USA",https://www.meetup.com/AWS-Frederick-Meetup/,General AWS User Groups,39.415779,-77.4127562,meetup,745,https://secure.meetupstatic.com/photos/event/c/0/0/6/600_485029158.jpeg
AWS GO,"‎Goiânia, Brazil",https://www.meetup.com/AWS-GO/,General AWS User Groups,-16.680882,-49.2532691,meetup,1583,https://secure.meetupstatic.com/photos/event/7/d/4/7/600_525752071.jpeg
AWS Girls Argentina,"Argentina, Argentina",https://www.linkedin.com/company/aws-girls-argentina,Women's User Groups,-34.9964963,-64.9672817,other,,
AWS Girls Chile User Group,"Santiago, Chile",https://www.meetup.com/aws-girls-chile-group/,Women's User Groups,-33.4377756,-70.6504502,meetup,965,https://secure.meetupstatic.com/photos/event/8/7/5/1/600_499714641.jpeg
AWS Gothenburg User Group,"Gothenburg, Sweden",https://www.meetup.com/AWS_user_group_Gothenburg/,General AWS User Groups,57.7072326,11.9670171,meetup,1202,https://secure.meetupstatic.com/photos/event/3/f/f/1/600_502396369.jpeg
AWS Guatemala,"Guatemala, Guatemala",https://www.meetup.com/AWS-Guatemala/,General AWS User Groups,15.5855545,-90.345759,meetup,2640,https://secure.meetupstatic.com/photos/event/2/7/0/f/600_494589999.jpeg
AWS Gulf Coast User Group,"Mobile, USA",https://www.linkedin.com/company/aws-gulf-coast-user-group/,General AWS User Groups,30.6972412,-88.1892334,other,,
AWS Gurus,"San Mateo, California, USA",https://www.meetup.com/awsgurus/,General AWS User Groups,37.496904,-122.3330573,meetup,4029,https://secure.meetupstatic.com/photos/event/4/2/c/b/600_461237099.jpeg
AWS Houston,"Houston, Texas, USA",https://www.meetup.com/AWS-Houston/,General AWS User Groups,29.7589382,-95.3676974,meetup,2964,https://secure.meetupstatic.com/photos/event/a/5/8/b/600_478902379.jpeg
AWS IL,"Tel Aviv-Yafo, Israel",https://www.meetup.com/AWS-IL/,General AWS User Groups,32.0852997,34.7818064,meetup,10052,https://secure.meetupstatic.com/photos/event/7/4/b/b/600_504209883.jpeg
AWS Ireland Usergroup,"Dublin, Ireland",https://www.meetup.com/AWS-Ireland-Usergroup/,General AWS User Groups,53.3493795,-6.2605593,meetup,4132,https://secure.meetupstatic.com/photos/event/6/8/1/c/600_527126652.jpeg
AWS JOZI,"Johannesburg, South Africa",https://www.meetup.com/AWS-JOZI/,General AWS User Groups,-26.205,28.049722,meetup,2326,https://secure.meetupstatic.com/photos/event/c/7/b/d/600_503331133.jpeg
AWS Jackson Mississippi,"Jackson, Mississippi, USA",https://www.meetup.com/pro/aws-jackson-mississippi/,General AWS User Groups,32.2998686,-90.1830408,meetup,220,https://secure.meetupstatic.com/next/images/shared/meetup-logo.jpg
AWS Jordan,"Amman, Jordan",https://www.meetup.com/aws-jordan/,General AWS User Groups,31.9515694,35.9239625,meetup,918,https://secure.meetupstatic.com/photos/event/2/0/d/4/600_494048404.jpeg
AWS Kansas City User Group,"Kansas City, Kansas, USA",https://www.meetup.com/awskcug/,General AWS User Groups,39.1134562,-94.626497,meetup,1335,https://secure.meetupstatic.com/photos/event/b/c/8/3/600_476868259.jpeg
AWS Korea User Group (AWSKRUG),Korea,https://awskrug.github.io/,General AWS User Groups,37.9528488,126.7331171,other,,
AWS Lafayette,"Lafayette, Louisiana, USA",https://www.meetup.com/AWS-Lafayette/,General AWS User Groups,30.2262187,-92.0178202,meetup,369,https://secure.meetupstatic.com/photos/event/4/2/4/e/600_515236974.jpeg
AWS Las Vegas,"Las Vegas, Nevada, USA",https://www.meetup.com/AWS-LasVegas/,General AWS User Groups,36.1672719,-115.1483538,meetup,712,https://secure.meetupstatic.com/photos/event/4/a/a/0/600_521599104.jpeg
AWS Leeds User Group,"Leeds, United Kingdom",https://www.meetup.com/AWS-Leeds-User-Group/,General AWS User Groups,53.7974185,-1.5437941,meetup,1548,https://secure.meetupstatic.com/photos/event/a/8/f/c/600_478303260.jpeg
AWS Lyon AWS User Group,"Lyon, France",https://www.meetup.com/AWS-Lyon-Amazon-Web-Services-User-Group/,General AWS User Groups,45.7578137,4.8320114,meetup,968,https://secure.meetupstatic.com/photos/event/c/9/4/0/600_497631520.jpeg
AWS Machine Learning Community NYC,"New York City, New York, USA",https://www.meetup.com/AWS-Machine-Learning-Community-NYC/,General AWS User Groups,40.7127281,-74.0060152,meetup,4376,https://secure.meetupstatic.com/photos/event/1/1/f/d/600_488944605.jpeg
AWS Machine Learning LATAM,"Lima, Peru",https://www.linkedin.com/company/awsmllatam/,AI/ML,-11.967575,-77.0113689,other,,
AWS Medellin,"Medellín, Colombia",https://www.meetup.com/AWS-Medellin/,General AWS User Groups,6.2697324,-75.6025597,meetup,1989,https://secure.meetupstatic.com/photos/event/9/8/6/6/600_511299014.jpeg
AWS Meetup Aarhus,"Århus, Denmark",https://www.meetup.com/AWSaarhus/,General AWS User Groups,56.1496278,10.2134046,meetup,454,https://secure.meetupstatic.com/photos/event/2/4/7/9/600_481329337.jpeg
AWS Meetup JKL,"Jyväskylä, Finland",https://www.meetup.com/aws-meetup-jkl/,General AWS User Groups,62.2417066,25.7495727,meetup,270,https://secure.meetupstatic.com/photos/event/4/d/f/7/600_502519959.jpeg
AWS Meetup Karlsruhe,"Karlsruhe, Germany",https://www.meetup.com/aws-meetup-karlsruhe/,General AWS User Groups,49.0068705,8.4034195,meetup,587,https://secure.meetupstatic.com/photos/event/9/1/e/b/600_520477355.jpeg
AWS Meetup Minsk,"Minsk, Belarus",https://t.me/aws_minsk,General AWS User Groups,53.9154648,27.5508093,other,,
AWS Meetup Rio de Janeiro,"Rio de Janeiro, Brazil",https://www.meetup.com/AWS-Meetup-Rio-de-Janeiro/,General AWS User Groups,-22.9110137,-43.2093727,meetup,3833,https://secure.meetupstatic.com/photos/event/d/a/d/e/600_522356030.jpeg
AWS Melbourne Well-Architected User Group,"Melbourne, Australia",https://www.meetup.com/aws-melbourne-well-architected-user-group/,General AWS User Groups,-37.8142454,144.9631732,meetup,1526,https://secure.meetupstatic.com/photos/event/2/a/4/6/600_516790822.jpeg
AWS Michigan,"Ann Arbor, Michigan, USA",https://www.meetup.com/AWS-Michigan/,General AWS User Groups,42.2813722,-83.7484616,meetup,1439,https://secure.meetupstatic.com/photos/event/9/8/1/9/600_517118937.jpeg
AWS Milwaukee,"Milwaukee, USA",https://www.meetup.com/mkeaws/,General AWS User Groups,43.0386475,-87.9090751,meetup,1210,https://secure.meetupstatic.com/photos/event/8/8/0/9/600_490054825.jpeg
AWS Munich,"München, Germany",https://www.meetup.com/AWS-Munich/,General AWS User Groups,48.1371079,11.5753822,meetup,6042,https://secure.meetupstatic.com/photos/event/c/0/3/4/600_504529204.jpeg
AWS NYC,"New York City, New York, USA",https://www.meetup.com/AWS-NYC/,General AWS User Groups,40.7127281,-74.0060152,meetup,7483,https://secure.meetupstatic.com/photos/event/7/6/c/2/600_454110402.jpeg
AWS New Orleans,"New Orleans, Louisiana, USA",https://www.meetup.com/AWS-New-Orleans/,General AWS User Groups,29.9759983,-90.0782127,meetup,315,https://secure.meetupstatic.com/photos/event/4/2/5/4/600_515236980.jpeg
AWS New York,"New York City, New York, USA",https://www.meetup.com/AWSnewyork/,General AWS User Groups,40.7127281,-74.0060152,meetup,2695,https://secure.meetupstatic.com/photos/event/5/3/3/b/600_524661307.jpeg
AWS Nigeria User Group,"Lagos, Nigeria",https://www.meetup.com/AWS-Nigeria-User-Group/,General AWS User Groups,6.4550575,3.3941795,meetup,5594,https://secure.meetupstatic.com/photos/event/5/1/1/a/600_517460762.jpeg
AWS Ontario Virtual User Group,"Toronto, Ontario, Canada",https://www.meetup.com/aws-ontario-virtual-user-group/,General AWS User Groups,43.6534817,-79.3839347,meetup,5607,https://secure.meetupstatic.com/photos/event/9/e/b/f/600_508120639.jpeg
AWS Orange County,"Irvine, CA",https://www.meetup.com/AWS-Orange-County-Official-Events/,General AWS User Groups,33.6856969,-117.825981,meetup,2029,https://secure.meetupstatic.com/photos/event/d/6/2/6/600_526374822.jpeg
AWS PTA,"Pretoria, South Africa",https://www.meetup.com/AWS-PTA/,General AWS User Groups,-25.7459277,28.1879101,meetup,2111,https://secure.meetupstatic.com/photos/event/c/9/1/1/600_526371473.jpeg
AWS Palestine,"Ramallah, Palestinian Territories",https://www.meetup.com/aws-palestine/,General AWS User Groups,,,meetup,461,https://secure.meetupstatic.com/photos/event/d/f/2/6/600_494037126.jpeg
AWS Portland,"Portland, Oregon, USA",https://www.meetup.com/AWS-Portland/,General AWS User Groups,45.5202471,-122.674194,meetup,2396,https://secure.meetupstatic.com/photos/event/8/8/7/e/600_487834942.jpeg
AWS Porto Alegre,"Porto Alegre, Brazil",https://www.meetup.com/AWS-Porto-Alegre/,General AWS User Groups,-30.0324999,-51.2303767,meetup,2128,https://secure.meetupstatic.com/photos/event/6/8/e/600_497521678.jpeg
AWS Portsmouth User Group,"Portsmouth, New Hampshire, USA",https://www.meetup.com/awspug/,General AWS User Groups,43.0702223,-70.7548621,meetup,1221,https://secure.meetupstatic.com/photos/event/6/d/b/d/600_488788093.jpeg
AWS Providence UG,"Providence, Rhode Island, USA",https://www.meetup.com/providence-aws-user-group/,General AWS User Groups,41.8239891,-71.4128343,meetup,291,https://secure.meetupstatic.com/photos/event/8/8/8/7/600_505054951.jpeg
AWS Puerto Rico UG,"Puerto Rico, Puerto Rico",https://www.meetup.com/amazon-web-services-puerto-rico-user-group/,General AWS User Groups,-26.8167893,-55.0266912,meetup,512,https://secure.meetupstatic.com/photos/event/3/8/6/5/600_495854437.jpeg
AWS Raleigh,"Raleigh, North Carolina, USA",https://www.meetup.com/AWS-Raleigh/,General AWS User Groups,35.7803977,-78.6390989,meetup,1503,https://secure.meetupstatic.com/photos/event/b/7/4/a/600_496666922.jpeg
AWS Rosenheim Meetup Gruppe,"Rosenheim, Germany",https://www.meetup.com/Amazon-Web-Services-Rosenheim-Meetup-Gruppe/,General AWS User Groups,47.8539273,12.127262,meetup,167,https://secure.meetupstatic.com/photos/event/8/7/5/9/600_501334649.jpeg
AWS Sacramento,"Sacramento, California, USA",https://www.meetup.com/AWS-SACRAMENTO/,General AWS User Groups,38.5810606,-121.493895,meetup,1243,https://secure.meetupstatic.com/photos/event/c/7/c/2/600_521391138.jpeg
AWS San Diego User Group,"San Diego, California, USA",https://www.meetup.com/Amazon-Web-Services-San-Diego-User-Group/,General AWS User Groups,32.7174202,-117.162772,meetup,,https://secure.meetupstatic.com/photos/event/4/7/2/6/600_485658214.jpeg
AWS San Francisco,"San Francisco, California, USA",https://www.meetup.com/AWS-SANFRANCISCO/,General AWS User Groups,37.7792588,-122.4193286,meetup,6170,https://secure.meetupstatic.com/photos/event/4/a/c/7/600_500299143.jpeg
AWS Saudi User Group,"Riyadh, Saudi Arabia",https://www.meetup.com/AWS-Saudi-user-group/,General AWS User Groups,23.333333,45.333333,meetup,2480,https://secure.meetupstatic.com/photos/event/8/9/4/600_492962196.jpeg
AWS Security Community LATAM,"Lima, Peru",https://www.meetup.com/awssecuritylatam/,Security,-11.967575,-77.0113689,meetup,2737,https://secure.meetupstatic.com/photos/event/c/6/c/f/600_520730895.jpeg
AWS Security User Group Malaysia,"Kuala Lumpur, Malaysia",https://www.meetup.com/aws-security-users-group-malaysia/,General AWS User Groups,3.1526589,101.7022205,meetup,860,https://secure.meetupstatic.com/photos/event/8/4/8/4/600_505173924.jpeg
AWS Security User Group Philippines,"Manila, Philippines",https://www.meetup.com/aws-security-users-group-manila/,General AWS User Groups,14.5904492,120.9803621,meetup,1001,https://secure.meetupstatic.com/photos/event/4/f/7/c/600_506180348.jpeg
AWS Serverless Budapest,"Budapest, Hungary",https://www.meetup.com/aws-serverless-budapest/,General AWS User Groups,47.4813896,19.1460941,meetup,586,https://secure.meetupstatic.com/photos/event/1/2/e/3/600_523144835.jpeg
AWS Serverless User Group Myanmar,"Myanmar, Myanmar",https://www.facebook.com/groups/serverlessmm,Serverless,17.1750495,95.9999652,other,,
AWS South Wales User Group,"South Wales, United Kingdom",https://www.meetup.com/AWS-South-Wales-User-Group/,General AWS User Groups,51.4990882,-3.5654901,meetup,1320,https://secure.meetupstatic.com/photos/event/7/4/7/b/600_518489819.jpeg
AWS Startup Community -Japan,Tokyo,https://aws-startup-community.connpass.com/,AWS Startups,35.6768601,139.7638947,other,,
AWS Stockholm,"Stockholm, Sweden",https://www.meetup.com/aws-stockholm/,General AWS User Groups,59.3251172,18.0710935,meetup,2935,https://secure.meetupstatic.com/photos/event/6/0/f/8/600_489144824.jpeg
AWS Swiss User Group Basel,"Basel, Switzerland",https://www.meetup.com/meetup-group-CeXGtXcm/,General AWS User Groups,47.5581077,7.5878261,meetup,270,https://secure.meetupstatic.com/photos/event/d/3/8/5/600_486594149.jpeg
AWS Swiss User Group Bern,"Bern, Switzerland",https://www.meetup.com/AWS-Swiss-User-Group-Bern/,General AWS User Groups,46.9484742,7.4521749,meetup,596,https://secure.meetupstatic.com/photos/event/5/7/7/9/600_481582393.jpeg
AWS Swiss User Group Geneva,"Geneva, Switzerland",https://www.meetup.com/AWS-Swiss-User-Group-Geneva/,General AWS User Groups,46.2017559,6.1466014,meetup,729,https://secure.meetupstatic.com/photos/event/6/f/2/1/600_512908449.jpeg
AWS Swiss User Group Lausanne,"Lausanne, Switzerland",https://www.meetup.com/AWS-Swiss-User-Group-Lausanne/,General AWS User Groups,46.5218269,6.6327025,meetup,610,https://secure.meetupstatic.com/photos/event/3/b/1/8/600_507495128.jpeg
AWS Swiss User Group Zurich,"Zurich, Switzerland",https://www.meetup.com/awsugch/,General AWS User Groups,47.3744489,8.5410422,meetup,1256,https://secure.meetupstatic.com/photos/event/d/5/4/7/600_481554599.jpeg
AWS Sydney Well-Architected User Group,"Sydney, Australia",https://www.meetup.com/aws-sydney-well-architected-user-group/,General AWS User Groups,-33.8698439,151.2082848,meetup,1509,https://secure.meetupstatic.com/photos/event/5/b/c/f/600_516383503.jpeg
AWS Tunisia,"Tunisia, Tunisia",https://www.meetup.com/aws-user-group-tunisia/,General AWS User Groups,36.8002068,10.1857757,meetup,397,https://secure.meetupstatic.com/photos/event/1/7/b/7/600_517926071.jpeg
AWS UG Abu Dhabi,"Abu Dhabi, UAE",https://www.meetup.com/abu-dhabi-aws-user-group/,General AWS User Groups,24.4565693,54.33751,meetup,709,https://secure.meetupstatic.com/photos/event/4/2/0/8/600_517336904.jpeg
AWS UG Aurangabad,"Aurangabad, India",https://www.meetup.com/awsugaurangabad/,General AWS User Groups,24.80332,84.4110198,meetup,874,https://secure.meetupstatic.com/photos/event/7/2/e/3/600_511349411.jpeg
AWS UG Bajio,"Bajío, Mexico",https://www.meetup.com/AWS-User-Group-Bajio/,General AWS User Groups,21.1974919,-103.3668575,meetup,,
AWS UG Castelo Branco,"Castelo Branco, Portugal",https://www.meetup.com/aws-user-group-castelo-branco/,General AWS User Groups,39.9767583,-7.4460599,meetup,72,https://secure.meetupstatic.com/photos/event/4/9/4/4/600_527658756.jpeg
AWS UG Chisinau,"Chisinau, Moldova",https://www.meetup.com/amazon-web-services-user-group-chisinau/,General AWS User Groups,47.0245117,28.8322923,meetup,120,https://secure.meetupstatic.com/photos/event/9/e/b/5/600_509920629.jpeg
AWS UG Egypt,"Cairo, Egypt",https://www.meetup.com/awsegyptmeetup/,General AWS User Groups,30.0443879,31.2357257,meetup,2092,https://secure.meetupstatic.com/photos/event/7/b/7/d/600_512731613.jpeg
AWS UG Islamabad,"Islamabad, Pakistan",https://www.linkedin.com/company/aws-ug-islamabad/,General AWS User Groups,33.6938118,73.0651511,other,,
AWS UG Jalisco,"Guadajalara, Mexico",https://www.meetup.com/Amazon-Web-Services-Jalisco/,General AWS User Groups,19.4285597,-99.1528148,meetup,1827,https://secure.meetupstatic.com/photos/event/c/6/c/2/600_527390882.jpeg
AWS UG Jamaica,"Kingston, Jamaica",https://www.meetup.com/aws-user-group-jamaica/,General AWS User Groups,17.9712148,-76.7928128,meetup,173,https://secure.meetupstatic.com/photos/event/a/4/a/8/600_504102152.jpeg
AWS UG Maputo,"Maputo, Mozambique",https://www.meetup.com/aws-maputo/,General AWS User Groups,-25.966213,32.56745,meetup,408,https://secure.meetupstatic.com/photos/event/d/a/3/600_510363491.jpeg
AWS UG Medan,"Medan, Indonesia",https://www.meetup.com/aws-user-group-medan/,General AWS User Groups,3.5896654,98.6738261,meetup,511,https://secure.meetupstatic.com/photos/event/2/4/8/2/600_510129346.jpeg
AWS UG Mexico,"Ciudad de México, Mexico",https://www.meetup.com/Amazon-Web-Services-Mexico/,General AWS User Groups,19.4326296,-99.1331785,meetup,3642,https://secure.meetupstatic.com/photos/event/8/4/e/5/600_523354021.jpeg
AWS UG Monterrey,"Monterrey, Mexico",https://www.meetup.com/AWS-User-Group-Monterrey/,General AWS User Groups,25.6802019,-100.315258,meetup,669,https://secure.meetupstatic.com/photos/event/2/a/8/e/600_511510894.jpeg
AWS UG Patagonia,"Patagonia, Argentina",https://www.meetup.com/patagonia-aws-cloud-user-group,General AWS User Groups,-51.6538867,-69.2921939,meetup,169,https://secure.meetupstatic.com/photos/event/b/2/4/a/600_508065642.jpeg
AWS UG Peru,"Lima, Peru",https://www.meetup.com/awsperu/,General AWS User Groups,-11.967575,-77.0113689,meetup,3103,https://secure.meetupstatic.com/photos/event/2/4/c/6/600_512409414.jpeg
AWS UG Queretaro,"Querétaro, Mexico",https://www.meetup.com/Amazon-Web-Services-Queretaro/,General AWS User Groups,20.8052225,-99.8837376,meetup,718,https://secure.meetupstatic.com/photos/event/7/7/2/0/600_480330496.jpeg
AWS UG Security Argentina,"Buenos Aires, Argentina",https://www.meetup.com/aws-security-usergroup-argentina/,General AWS User Groups,-33.3657998,-60.19955,meetup,298,https://secure.meetupstatic.com/photos/event/8/0/8/7/600_524132903.jpeg
AWS UG Vadodara,"Vadodara, India",https://www.meetup.com/aws-community-vadodara/,General AWS User Groups,22.2973142,73.1942567,meetup,3563,https://secure.meetupstatic.com/photos/event/e/8/7/3/600_523619507.jpeg
AWS UG Wroclaw,"Wroclaw, Poland",https://www.meetup.com/pl-PL/aws-ug-wroclaw/,General AWS User Groups,51.1089776,17.0326689,meetup,,https://secure.meetupstatic.com/photos/event/5/a/a/6/600_510983206.jpeg
AWS UG Zagreb,"Zagreb, Croatia",https://www.meetup.com/aws-user-group-zg/,General AWS User Groups,45.7982883,15.947751,meetup,243,https://secure.meetupstatic.com/photos/event/9/4/1/2/600_488197906.jpeg
AWS User Group - Virginia & Metro DC,"Herndon, VA, USA",https://www.meetup.com/amazon-web-services-dmv/,General AWS User Groups,38.9695316,-77.3859479,meetup,5865,https://secure.meetupstatic.com/photos/event/7/7/c/6/600_522750662.jpeg
AWS User Group 3city,"Gdansk, Poland",https://www.meetup.com/aws-user-group-3city/,General AWS User Groups,54.4288032,18.798327,meetup,706,https://secure.meetupstatic.com/photos/event/9/d/3/e/600_519460254.jpeg
AWS User Group AI/ML Kenya,"Meru, Kenya",https://www.linkedin.com/company/aws-ai-ml-kenya/,General AWS User Groups,0.2254509,37.7772624,other,,
AWS User Group Abuja,"Abuja, Nigeria",https://www.meetup.com/aws-user-group-abuja/,General AWS User Groups,9.0643305,7.4892974,meetup,,
AWS User Group Addis Ababa,"Addis Ababa, Ethiopia",https://www.meetup.com/aws-user-group-addis-ababa/,General AWS User Groups,9.0358287,38.7524127,meetup,294,https://secure.meetupstatic.com/photos/event/6/c/7/b/600_527367771.jpeg
AWS User Group Adelaide,"Adelaide, Australia",https://www.meetup.com/Amazon-Web-Services-User-Group-Adelaide/,General AWS User Groups,-34.9281805,138.5999312,meetup,2643,https://secure.meetupstatic.com/photos/event/9/d/7/c/600_494800316.jpeg
AWS User Group Ahmedabad,"Ahmedabad, India",https://genaiday.awsahmedabad.community/,General AWS User Groups,23.0215374,72.5800568,other,,
AWS User Group Ajolotes en la Nube,"Ciudad de Mexico, Mexico",https://www.meetup.com/ajolotesenlanube/,General AWS User Groups,19.4326296,-99.1331785,meetup,938,https://secure.meetupstatic.com/photos/event/1/3/2/8/600_524824904.jpeg
AWS User Group Alicante,"Alicante, Spain",https://www.meetup.com/aws-user-group-alicante/,General AWS User Groups,38.3436365,-0.4881708,meetup,525,https://secure.meetupstatic.com/photos/event/6/7/a/7/600_484526535.jpeg
AWS User Group Alto Tiête,"Alto Tiête, Brasil",https://www.meetup.com/aws-user-group-alto-tiete/,General AWS User Groups,-23.5401519,-46.2811661,meetup,472,https://secure.meetupstatic.com/photos/event/a/6/a/d/600_514542669.jpeg
AWS User Group Angola,"Luanda, Angola",https://www.meetup.com/aws-ug-angola/,General AWS User Groups,-8.8272699,13.2439512,meetup,59,https://secure.meetupstatic.com/photos/event/d/0/0/d/600_516473261.jpeg
AWS User Group Argentina,"Buenos Aires, Argentina",https://www.meetup.com/es/aws-girls-argentina/,General AWS User Groups,-33.3657998,-60.19955,meetup,,https://secure.meetupstatic.com/photos/event/c/7/a/a/600_524091114.jpeg
AWS User Group Armenia,"Yerevan, Armenia",https://www.meetup.com/AWS-User-Group-Armenia,General AWS User Groups,40.1777112,44.5126233,meetup,845,https://secure.meetupstatic.com/photos/event/4/2/e/8/600_509837128.jpeg
AWS User Group Astana,"Astana, Kazakhstan",https://www.meetup.com/aws-user-group-astana/,General AWS User Groups,51.1159933,71.4677059,meetup,278,https://secure.meetupstatic.com/photos/event/3/f/9/b/600_520156283.jpeg
AWS User Group Asturias,"Asturias , Spain",https://www.meetup.com/aws-user-group-asturias/,General AWS User Groups,43.3133868,-5.94192,meetup,248,https://secure.meetupstatic.com/photos/event/2/8/0/6/600_513130246.jpeg
AWS User Group Asunción,"Asunción, Paraguay",https://www.meetup.com/aws-ug-paraguay/,General AWS User Groups,-25.2800459,-57.6343814,meetup,347,https://secure.meetupstatic.com/photos/event/9/2/8/c/600_519397516.jpeg
AWS User Group Auckland,"Auckland, New Zealand",https://www.meetup.com/AWS_NZ/,General AWS User Groups,-36.852095,174.7631803,meetup,3202,https://secure.meetupstatic.com/photos/event/3/b/a/b/600_469635275.jpeg
AWS User Group Aurangabad,"India, Aurangabad",https://www.meetup.com/awsugaurangabad/,General AWS User Groups,24.80332,84.4110198,meetup,874,https://secure.meetupstatic.com/photos/event/7/2/e/3/600_511349411.jpeg
AWS User Group Azuero,"Azuero, Panamá",https://www.meetup.com/AWS-User-Group-Azuero/,General AWS User Groups,7.6920927,-80.5545897,meetup,,
AWS User Group Bamako,"Bamako, Mali",https://www.meetup.com/aws-user-group-bamako/,General AWS User Groups,12.5222192,-7.949552,meetup,144,https://secure.meetupstatic.com/photos/event/9/f/b/6/600_508120886.jpeg
AWS User Group Banja Luka,"Banja Luka, Bosnia & Herzegovina",https://www.meetup.com/AWS-User-Group-Banja-Luka/,General AWS User Groups,44.7720845,17.1917651,meetup,248,https://secure.meetupstatic.com/photos/event/a/b/e/4/600_485984004.jpeg
AWS User Group Bari,"Bari, Italy",https://www.meetup.com/AWS-User-Group-Bari/,General AWS User Groups,41.1257843,16.8620293,meetup,529,https://secure.meetupstatic.com/photos/event/1/2/2/e/600_487504654.jpeg
AWS User Group Basilicata,"Potenza, Basilicasta",https://www.meetup.com/it-IT/aws-user-group-basilicata/,General AWS User Groups,,,meetup,,https://secure.meetupstatic.com/photos/event/2/d/5/1/600_523211601.jpeg
AWS User Group Beijing,"Beijing, China",https://www.caws-ug.cn/index.html#/Home/OrganizerParticular?CityName=%E5%8C%97%E4%BA%AC&CityId=10307,General AWS User Groups,40.190632,116.412144,other,,
AWS User Group Belem,"Iago, Cavalcante",https://www.meetup.com/aws-user-group-belem/,General AWS User Groups,,,meetup,399,https://secure.meetupstatic.com/photos/event/9/5/8/9/600_525998281.jpeg
AWS User Group Belgium,"Brussels, Belgium",https://www.meetup.com/AWS-User-Group-Belgium/,General AWS User Groups,50.8465573,4.351697,meetup,1607,https://secure.meetupstatic.com/photos/event/7/d/7/b/600_523472123.jpeg
AWS User Group Belgrade,"Belgrade, Serbia",https://www.meetup.com/AWSUGBelgrade/,General AWS User Groups,44.8178131,20.4568974,meetup,888,https://secure.meetupstatic.com/photos/event/9/7/4/a/600_480758730.jpeg
AWS User Group Belize Central America,"San Ignacio, Belize",https://www.meetup.com/aws-user-group-belize,General AWS User Groups,17.1527588,-89.0761718,meetup,200,https://secure.meetupstatic.com/photos/event/2/0/1/f/600_509468223.jpeg
AWS User Group Bengaluru,"Bangalore, India",https://www.meetup.com/awsugblr/,General AWS User Groups,12.9881567,77.6226,meetup,13852,https://secure.meetupstatic.com/photos/event/5/2/a/f/600_521121167.jpeg
AWS User Group Benin,"Johannesburg, South Africa",https://www.meetup.com/aws-user-group-benin/,General AWS User Groups,-26.205,28.049722,meetup,388,https://secure.meetupstatic.com/photos/event/2/5/0/c/600_498369484.jpeg
AWS User Group Bergen,"Bergen, Norway",https://www.meetup.com/AWS-User-Group-Bergen/,General AWS User Groups,60.3943055,5.3259192,meetup,581,https://secure.meetupstatic.com/photos/event/7/6/c/4/600_459570404.jpeg
AWS User Group Bergstrasse,"Bergstrasse, Germany",https://www.meetup.com/aws-user-group-bergstrasse/,General AWS User Groups,51.022514,13.7304814,meetup,198,https://secure.meetupstatic.com/photos/event/2/3/a/2/600_523869122.jpeg
AWS User Group Białystok,No location,https://www.meetup.com/pl-PL/aws-user-group-bialystok/,General AWS User Groups,59.895137,10.7691233,meetup,,https://secure.meetupstatic.com/photos/event/8/e/8/a/600_521496490.jpeg
AWS User Group Birmingham,"Birmingham, Alabama, USA",https://www.meetup.com/Birmingham-AWS-Architects-Engineers-and-users/,General AWS User Groups,33.5206824,-86.8024326,meetup,445,https://secure.meetupstatic.com/photos/event/c/3/b/d/600_468650109.jpeg
AWS User Group Blumenau,"Blumenau, Brazil",https://www.meetup.com/aws-usergroup-blumenau/,General AWS User Groups,-26.9195567,-49.0658025,meetup,1227,https://secure.meetupstatic.com/photos/event/d/5/5/c/600_495954620.jpeg
AWS User Group Bodensee,"Konstanz ,Germany",https://www.meetup.com/aws-usergroup-konstanz/,General AWS User Groups,47.659216,9.1750718,meetup,5,https://secure.meetupstatic.com/next/images/shared/meetup-logo.jpg
AWS User Group Bolivia,"La Paz, Bolivia",https://www.meetup.com/aws-user-group-la-paz/,General AWS User Groups,-34.7447305,-56.231526,meetup,485,https://secure.meetupstatic.com/photos/event/2/3/a/a/600_515829130.jpeg
AWS User Group Bonn,"Bonn, germany",https://www.meetup.com/de-DE/aws-user-group-bonn/,General AWS User Groups,50.7352621,7.1024635,meetup,,https://secure.meetupstatic.com/photos/event/3/f/5/2/600_513136210.jpeg
AWS User Group Bosnia,"Mostar, Bosnia & Herzegovina",https://www.meetup.com/AWS-User-Group-Bosnia/,General AWS User Groups,43.3435855,17.8076584,meetup,587,https://secure.meetupstatic.com/photos/event/9/8/2/7/600_467078951.jpeg
AWS User Group Boyacá,"Boyacá, Colombia",https://www.meetup.com/awsugboyaca/,General AWS User Groups,5.6278979,-72.8268617,meetup,122,https://secure.meetupstatic.com/photos/event/c/0/f/2/600_510949394.jpeg
AWS User Group Brasilia,"Brasilia, Brasil",https://www.meetup.com/es/aws-user-group-brasilia/,General AWS User Groups,-10.3333333,-53.2,meetup,,https://secure.meetupstatic.com/photos/event/7/c/d/600_519181997.jpeg
AWS User Group Bratislava,"Bratislava, Slovakia",https://www.meetup.com/aws-user-group-bratislava/,General AWS User Groups,48.1516988,17.1093063,meetup,585,https://secure.meetupstatic.com/photos/event/7/9/3/f/600_523711039.jpeg
AWS User Group Braunschweig,"Braunschweig, Germany",https://www.meetup.com/AWS-User-Group-Braunschweig2/,General AWS User Groups,52.2646577,10.5236066,meetup,348,https://secure.meetupstatic.com/photos/event/8/0/b/5/600_516332949.jpeg
AWS User Group Brazzaville,"Brazzaville, Congo",https://www.meetup.com/aws-users-group-brazzaville/,General AWS User Groups,-4.1890991,15.3223976,meetup,54,https://secure.meetupstatic.com/photos/event/e/4/b/600_525003659.jpeg
AWS User Group Brest,"Brest, France",https://www.meetup.com/brest-aws-user-group/,General AWS User Groups,48.3905283,-4.4860088,meetup,170,https://secure.meetupstatic.com/photos/event/8/9/a/4/600_501455236.jpeg
AWS User Group Brighton,"Brighton, UK",https://www.meetup.com/aws-brighton-user-group/,General AWS User Groups,50.8214626,-0.1400561,meetup,326,https://secure.meetupstatic.com/photos/event/6/a/0/a/600_513867146.jpeg
AWS User Group Brisbane,"Brisbane, Australia",https://www.meetup.com/aws-brisbane/,General AWS User Groups,-27.4689682,153.0234991,meetup,3446,https://secure.meetupstatic.com/photos/event/c/2/2/1/600_520249697.jpeg
AWS User Group Bristol,"Bristol, UK",https://www.meetup.com/aws-user-group-bristol/,General AWS User Groups,51.4538022,-2.5972985,meetup,157,https://secure.meetupstatic.com/photos/event/a/6/e/9/600_526602729.jpeg
AWS User Group Budapest,"Budapest, Hungary",https://www.meetup.com/aws-user-group-hungary/,General AWS User Groups,47.4813896,19.1460941,meetup,574,https://secure.meetupstatic.com/photos/event/7/3/e/5/600_524189669.jpeg
AWS User Group Buea,"Buea, Cameroon",https://www.meetup.com/aws-user-group-buea/,General AWS User Groups,4.1567895,9.2315915,meetup,81,https://secure.meetupstatic.com/photos/event/4/d/5/a/600_521359802.jpeg
AWS User Group Buenos Aires,"Buenos Aires, Argentina",https://www.meetup.com/AWS-User-Group-Buenos-Aires/,General AWS User Groups,-33.3657998,-60.19955,meetup,2435,https://secure.meetupstatic.com/photos/event/6/9/8/2/600_523047010.jpeg
AWS User Group BuildHers Philippines,"Makati, Philippines",https://www.meetup.com/AWS-Usergroup-PH-Women/,General AWS User Groups,14.5567949,121.0211226,meetup,640,https://secure.meetupstatic.com/photos/event/4/6/c/1/600_526698113.jpeg
AWS User Group CDMX,"Ciudad de Mexico, Mexico",https://www.meetup.com/es/aws-cdmx/,General AWS User Groups,19.4326296,-99.1331785,meetup,,https://secure.meetupstatic.com/photos/event/8/4/e/5/600_523354021.jpeg
AWS User Group Calabria,"Cosenza, Italy",https://www.meetup.com/AWSusergroupCalabria/,General AWS User Groups,39.5966853,16.3330556,meetup,414,https://secure.meetupstatic.com/photos/event/2/5/4/600_509760596.jpeg
AWS User Group Cali,"Cali, Colombia",https://www.meetup.com/aws-user-group-cali/,General AWS User Groups,3.4519988,-76.5325259,meetup,86,https://secure.meetupstatic.com/photos/event/d/a/0/b/600_523435819.jpeg
AWS User Group Campinas,"Campinas, Brazil",https://www.meetup.com/awscampinas/,General AWS User Groups,-22.9056391,-47.059564,meetup,1447,https://secure.meetupstatic.com/photos/event/b/d/5/e/600_510648478.jpeg
AWS User Group Canberra,"Canberra, Australia",https://meetup.com/awscbr,General AWS User Groups,-35.2975906,149.1012676,meetup,995,https://secure.meetupstatic.com/photos/event/3/9/1/e/600_474734622.jpeg
AWS User Group Cape Town,"Cape Town, South Africa",https://www.meetup.com/aws-cpt,General AWS User Groups,-33.9288301,18.4172197,meetup,2385,https://secure.meetupstatic.com/photos/event/a/9/8/6/600_526003398.jpeg
AWS User Group Caracas,"Caracas, Venezuela",https://www.meetup.com/AWS-User-Group-Caracas/,General AWS User Groups,10.5060934,-66.9146008,meetup,683,https://secure.meetupstatic.com/photos/event/2/0/2/6/600_508628230.jpeg
AWS User Group Casablanca,Casablanca,https://www.meetup.com/aws-user-group-morocco/,General AWS User Groups,33.5945144,-7.6200284,meetup,114,https://secure.meetupstatic.com/photos/event/4/e/3/0/600_526460016.jpeg
AWS User Group Caserta,"Caserta, Italy",https://www.meetup.com/AWS-User-Group-Caserta/,General AWS User Groups,41.2035192,14.1168624,meetup,200,https://secure.meetupstatic.com/photos/event/6/7/a/6/600_517166534.jpeg
AWS User Group Catania,"Catania, Italy",https://www.meetup.com/AWS-User-Group-Catania/,General AWS User Groups,37.5023612,15.0873718,meetup,273,https://secure.meetupstatic.com/photos/event/8/f/b/9/600_492276793.jpeg
AWS User Group Central Visayas,"Cebu, Philippines",https://www.meetup.com/AWS-Usergroup-PH-Central-Visayas/,General AWS User Groups,10.47,123.83,meetup,661,https://secure.meetupstatic.com/photos/event/5/6/9/d/600_467722173.jpeg
AWS User Group Changji,"Changji, China",https://www.caws-ug.cn/index.html#/Home/OrganizerParticular?CityName=%E6%98%8C%E5%90%89&CityId=10326,General AWS User Groups,44.3478012,86.6870066,other,,
AWS User Group Chengdu,"Chengdu, China",https://www.caws-ug.cn/index.html#/Home/OrganizerParticular?CityName=%E6%88%90%E9%83%BD&CityId=10312,General AWS User Groups,30.6598628,104.0633717,other,,
AWS User Group Chennai,"Chennai, India",https://www.meetup.com/awsusergroup-chennai/,General AWS User Groups,13.0836939,80.270186,meetup,5241,https://secure.meetupstatic.com/photos/event/c/5/3/0/600_505010480.jpeg
AWS User Group Chicago,"Chicago, USA",https://www.meetup.com/aws-chicago/,General AWS User Groups,41.8755616,-87.6244212,meetup,5287,https://secure.meetupstatic.com/photos/event/7/b/f/4/600_465871732.jpeg
AWS User Group Chile,"Santiago, Chile",https://www.meetup.com/AWS-User-Group-Chile/,General AWS User Groups,-33.4377756,-70.6504502,meetup,2715,https://secure.meetupstatic.com/photos/event/3/c/0/d/600_522015373.jpeg
AWS User Group Chimaltemango,No location,https://www.meetup.com/aws-chimaltenango/,General AWS User Groups,59.895137,10.7691233,meetup,93,https://secure.meetupstatic.com/photos/event/7/e/2/0/600_520952288.jpeg
AWS User Group Christchurch,"Christchurch, New Zealand",https://www.meetup.com/Christchurch-Amazon-Web-Services-Meetup/,General AWS User Groups,-43.530955,172.6364343,meetup,489,https://secure.meetupstatic.com/photos/event/8/f/1/4/600_505716628.jpeg
AWS User Group Circuito das Aguas Paulista,"Aguas Paulistas, Brazil",https://www.meetup.com/aws-user-group-circuito-das-aguas-paulista/,General AWS User Groups,-18.4201374,-42.9023258,meetup,44,https://secure.meetupstatic.com/photos/event/4/0/f/f/600_527536639.jpeg
AWS User Group Cloud Security NoVa,"Arlington, USA",https://www.meetup.com/aws-security-nova/,General AWS User Groups,32.7355816,-97.1071186,meetup,2149,https://secure.meetupstatic.com/photos/event/7/8/1/0/600_519990736.jpeg
AWS User Group Cochabamba,"Cochabamba, Bolivia",https://www.meetup.com/aws-user-group-cochabamba/,General AWS User Groups,-17.3726224,-66.1360967,meetup,141,https://secure.meetupstatic.com/photos/event/9/e/a/b/600_526120619.jpeg
AWS User Group Coimbatore,"India, Coimbatore",https://www.meetup.com/awsugcoimbatore/,General AWS User Groups,11.0018115,76.9628425,meetup,1856,https://secure.meetupstatic.com/photos/event/4/9/7/0/600_489018800.jpeg
AWS User Group Coimbatore,"Coimbatore, India",https://www.meetup.com/awsugcoimbatore/,General AWS User Groups,11.0018115,76.9628425,meetup,1856,https://secure.meetupstatic.com/photos/event/4/9/7/0/600_489018800.jpeg
AWS User Group Colombo,"Colombo, Sri Lanka",https://www.meetup.com/awsugcmb/,General AWS User Groups,6.9388614,79.8542005,meetup,4000,https://secure.meetupstatic.com/photos/event/a/a/0/3/600_494863523.jpeg
AWS User Group Conakry,"Conakry, Guinea",https://www.meetup.com/aws-user-group-conakry/,General AWS User Groups,9.5170602,-13.6998434,meetup,216,https://secure.meetupstatic.com/photos/event/6/d/f/d/600_512488157.jpeg
AWS User Group Congo Kinshasa,"Kinshasa, DR Congo",https://www.meetup.com/aws-user-group-congo-kinshasa/,General AWS User Groups,-4.3196982,15.3424196,meetup,426,https://secure.meetupstatic.com/photos/event/1/f/5/7/600_523868023.jpeg
AWS User Group Conneticut,"Hartford, CT, USA",https://www.meetup.com/aws-community-meetup-connecticut/,General AWS User Groups,41.764582,-72.6908547,meetup,254,https://secure.meetupstatic.com/photos/event/c/0/6/b/600_514189259.jpeg
AWS User Group Cordoba Argentina,"Cordoba, Argentina",https://www.meetup.com/AWS-User-Group-Cordoba-Argentina/,General AWS User Groups,-31.959109,-65.1900301,meetup,1944,https://secure.meetupstatic.com/photos/event/c/d/8/c/600_460852620.jpeg
AWS User Group Cork,"Cork, Ireland",https://www.meetup.com/AWS-Usergroup-Cork/,General AWS User Groups,51.8985136,-8.4726423,meetup,393,https://secure.meetupstatic.com/photos/event/1/b/2/4/600_520446948.jpeg
AWS User Group Costa Rica,"San José, Costa Rica",https://www.meetup.com/aws-user-group-san-jose-costa-rica,General AWS User Groups,9.9325427,-84.0795782,meetup,441,https://secure.meetupstatic.com/photos/event/5/c/3/0/600_517463600.jpeg
AWS User Group Cremona,"Cremona, Italy",https://www.meetup.com/AWS-User-Group-Cremona/,General AWS User Groups,45.2208641,10.037038,meetup,142,https://secure.meetupstatic.com/photos/event/1/d/d/2/600_491527634.jpeg
AWS User Group Cuneo,"Cuneo, Italy",https://www.meetup.com/aws-cuneo/,General AWS User Groups,44.4580703,7.5581367,meetup,148,https://secure.meetupstatic.com/photos/event/c/e/d/5/600_527092949.jpeg
AWS User Group Curitiba,"Curitiba, Brazil",https://www.meetup.com/pt-BR/aws-curitiba-user-group/,General AWS User Groups,-25.4295963,-49.2712724,meetup,,https://secure.meetupstatic.com/photos/event/3/0/e/0/600_527112512.jpeg
AWS User Group Córdoba,"Cordoba, Colombia",https://www.meetup.com/comunidad-aws-cordoba-col/,General AWS User Groups,8.3344713,-75.6666238,meetup,72,https://secure.meetupstatic.com/photos/event/8/b/0/e/600_508475598.jpeg
AWS User Group Dakar,"Dakar, Senegal",https://www.meetup.com/aws-user-group-dakar/,General AWS User Groups,14.693425,-17.447938,meetup,525,https://secure.meetupstatic.com/photos/event/3/0/0/a/600_508632298.jpeg
AWS User Group Davao,"Davao, Philippines",https://www.meetup.com/AWS-Davao/,General AWS User Groups,7.0648306,125.6080623,meetup,783,https://secure.meetupstatic.com/photos/event/d/5/9/1/600_521934673.jpeg
AWS User Group Dehradun,"Dehradun, India",https://www.linkedin.com/company/aws-user-group-dehradun/,General AWS User Groups,30.3255646,78.0436813,other,,
AWS User Group Delhi,"Delhi, India",https://www.meetup.com/AmazonAWS-Delhi/,General AWS User Groups,28.6273928,77.1716954,meetup,12581,https://secure.meetupstatic.com/photos/event/4/c/d/5/600_491959669.jpeg
AWS User Group Des Moines,"Des Moines, Iowa, USA",https://www.meetup.com/AWS-User-Group-Des-Moines/,General AWS User Groups,41.5868654,-93.6249494,meetup,1534,https://secure.meetupstatic.com/photos/event/b/2/0/e/600_461265582.jpeg
AWS User Group Dhaka,"Dhaka, Bangladesh",https://www.facebook.com/groups/AWSBangladesh,General AWS User Groups,23.8202931,90.3710408,other,,
AWS User Group Dominicana,"Dominicana, Dominican Republic",https://www.meetup.com/AWSUserGroupDominicana,General AWS User Groups,19.0974031,-70.3028026,meetup,998,https://secure.meetupstatic.com/photos/event/a/3/5/600_490202613.jpeg
AWS User Group Douala,"Douala, Cameroon",https://www.meetup.com/awsugdouala/,General AWS User Groups,4.0429389,9.7062018,meetup,881,https://secure.meetupstatic.com/photos/event/8/2/c/3/600_521793475.jpeg
AWS User Group East Bay,"Pleasanton, CA",https://www.meetup.com/AWS-EASTBAY/,General AWS User Groups,37.6624312,-121.8746789,meetup,839,https://secure.meetupstatic.com/photos/event/9/f/e/3/600_478600931.jpeg
AWS User Group East Midlands,"Nottingham, UK",https://www.meetup.com/east-midlands-aws-user-group/,General AWS User Groups,52.9534193,-1.1496461,meetup,186,https://secure.meetupstatic.com/photos/event/8/a/8/f/600_520175471.jpeg
AWS User Group El Progreso,"El Progreso, Guatemala",https://www.meetup.com/aws-elprogreso/,General AWS User Groups,14.9100436,-90.0682728,meetup,50,https://secure.meetupstatic.com/photos/event/7/e/1/6/600_524552278.jpeg
AWS User Group Ensenada,"Ensenada, Mexico",https://www.meetup.com/aws-user-group-ensenada/,General AWS User Groups,31.8658887,-116.602983,meetup,97,https://secure.meetupstatic.com/photos/event/d/5/6/e/600_518574638.jpeg
AWS User Group Ensenada,"Ensenada, México",https://www.meetup.com/aws-user-group-ensenada/,General AWS User Groups,31.8658887,-116.602983,meetup,97,https://secure.meetupstatic.com/photos/event/d/5/6/e/600_518574638.jpeg
AWS User Group Escuintla,"Escuintla, Guatemala",https://www.meetup.com/aws-user-group-escuintla/,General AWS User Groups,14.1921287,-91.0263791,meetup,66,https://secure.meetupstatic.com/photos/event/b/e/c/0/600_524268832.jpeg
AWS User Group Finland,"Helsinki, Finland",https://www.meetup.com/awsfin/,General AWS User Groups,60.1674881,24.9427473,meetup,3666,https://secure.meetupstatic.com/photos/event/5/9/8/a/600_484822922.jpeg
AWS User Group Florianópolis,"Florianópolis, Brazil",https://www.meetup.com/awsusergroupfln,General AWS User Groups,-27.5973002,-48.5496098,meetup,396,https://secure.meetupstatic.com/photos/event/b/b/e/6/600_491808102.jpeg
AWS User Group Foz do Iguaçu,"Foz do Iguaçu, Brasil",https://www.meetup.com/aws-usergroup-oeste-e-fronteiras/,General AWS User Groups,-25.5304023,-54.5830692,meetup,103,https://secure.meetupstatic.com/photos/event/1/0/8/3/600_514684227.jpeg
AWS User Group Girls Peru,"Lima, Peru",https://www.linkedin.com/company/aws-girls-user-group-peru/,Women's User Groups,-11.967575,-77.0113689,other,,
AWS User Group Giza,"Giza, Egypt",https://www.meetup.com/aws-ug-giza/,General AWS User Groups,29.9870753,31.2118063,meetup,1464,https://secure.meetupstatic.com/photos/event/7/2/e/d/600_524429421.jpeg
AWS User Group Gold Coast,"Gold Coast, Australia",https://www.meetup.com/awsgoldcoast/,General AWS User Groups,-28.0023731,153.4145987,meetup,742,https://secure.meetupstatic.com/photos/event/d/7/a/2/600_521995202.jpeg
AWS User Group Hannover,"Hannover, Germany",https://www.meetup.com/AWS-Usergroup-Hannover/,General AWS User Groups,52.3744779,9.7385532,meetup,675,https://secure.meetupstatic.com/photos/event/5/d/e/d/600_457224045.jpeg
"AWS User Group Harare, Zimbabwe","Harare, Zimbabwe",https://www.meetup.com/aws-user-group-harare-zimbabwe/,General AWS User Groups,-17.8567035,31.0601584,meetup,627,https://secure.meetupstatic.com/photos/event/9/b/a/6/600_511299846.jpeg
AWS User Group Hechi,"Hechi, China",https://www.caws-ug.cn/index.html#/Home/OrganizerParticular?CityName=%E6%B2%B3%E6%B1%A0&CityId=10354,General AWS User Groups,24.7169004,107.8857367,other,,
AWS User Group Heilbronn,"Heilbronn, Germany",https://www.meetup.com/aws-user-group-heilbronn/,General AWS User Groups,49.142291,9.218655,meetup,210,https://secure.meetupstatic.com/photos/event/9/7/0/b/600_512918667.jpeg
AWS User Group Hermosillo,"Hermosillo, Sonora",https://www.meetup.com/aws-user-group-hermosillo/,General AWS User Groups,29.0948207,-110.9692202,meetup,138,https://secure.meetupstatic.com/photos/event/1/5/4/e/600_525905454.jpeg
AWS User Group Ho Chi Minh City,"Ho Chi Minh City, Vietnam",https://www.facebook.com/groups/vietawscommunity,General AWS User Groups,10.7763897,106.7011391,other,,
AWS User Group Hong Kong,Hong Kong,https://www.facebook.com/groups/146633205522239/,General AWS User Groups,22.350627,114.1849161,other,,
AWS User Group Hyderabad,"Hyderabad, India",https://www.meetup.com/awsughyd/,General AWS User Groups,17.360589,78.4740613,meetup,6041,https://secure.meetupstatic.com/photos/event/1/b/3/2/600_510666962.jpeg
AWS User Group Iceland,"Iceland, Iceland",https://www.facebook.com/groups/awsusergroupiceland,General AWS User Groups,64.9841821,-18.1059013,other,,
AWS User Group Indore,"Indore, India",https://indore.awscommunity.in/,General AWS User Groups,22.7203616,75.8681996,other,,
AWS User Group Interior São Paulo,"São Paulo, Brazil",https://www.meetup.com/aws-user-group-interior-sp,General AWS User Groups,-23.5506507,-46.6333824,meetup,532,https://secure.meetupstatic.com/photos/event/c/7/0/f/600_510530959.jpeg
AWS User Group IoT Singapore,"Singapore, Singapore",https://meetup.com/aws-iot-meetup-group,IoT,1.2899175,103.8519072,meetup,,
AWS User Group Jaipur,"Jaipur, India",https://www.linkedin.com/company/awsjaipur/,General AWS User Groups,26.9154576,75.8189817,other,,
AWS User Group Jakarta,"Jakarta, Indonesia",https://www.facebook.com/groups/awsindonesia/,General AWS User Groups,-6.1817,106.8207194,other,,
AWS User Group Jakarta,"Indonesia, Jakarta",https://genaitour.dev/#jakarta,General AWS User Groups,-6.1817,106.8207194,other,,
AWS User Group Jalisco,"Mexico, Guadalajara",https://www.meetup.com/amazon-web-services-jalisco/,General AWS User Groups,20.6720375,-103.338396,meetup,1827,https://secure.meetupstatic.com/photos/event/c/6/c/2/600_527390882.jpeg
AWS User Group Joinville,"Joinville, Brazil",https://www.meetup.com/aws-user-group-joinville/,General AWS User Groups,-26.3044898,-48.8486726,meetup,316,https://secure.meetupstatic.com/photos/event/c/9/2/b/600_524751499.jpeg
AWS User Group Jonkoping,"Jönköping, Sweden",https://www.meetup.com/AWS-User-Group-Jonkoping/,General AWS User Groups,57.7825634,14.165719,meetup,224,https://secure.meetupstatic.com/photos/event/4/1/b/2/600_473536818.jpeg
AWS User Group Kampala,"Kampala, Uganda",https://www.linkedin.com/groups/9521088/,General AWS User Groups,0.3177137,32.5813539,other,,
AWS User Group Kanpur,"Kanpur, India",https://www.meetup.com/aws-user-group-kanpur/,General AWS User Groups,26.4635198,80.246895,meetup,330,https://secure.meetupstatic.com/photos/event/d/3/e/4/600_526674244.jpeg
AWS User Group Karachi,"Karachi, Pakistan",https://www.linkedin.com/company/aws-ug-karachi,General AWS User Groups,24.8546842,67.0207055,other,,
AWS User Group Kazakhstan,"Kazakhstan, Kazakhstan",https://t.me/+kgJckRCxnxNjNjIy,General AWS User Groups,48.1012954,66.7780818,other,,
AWS User Group Kigali,"Kigali , Rwanda",https://www.meetup.com/aws-user-group-kigali/,General AWS User Groups,-1.8859597,30.1296751,meetup,562,https://secure.meetupstatic.com/photos/event/a/d/2/f/600_513644335.jpeg
AWS User Group Kochi,"Kochi, India",https://www.meetup.com/awsugkochi/,General AWS User Groups,9.9679032,76.2444378,meetup,3105,https://secure.meetupstatic.com/photos/event/3/3/1/0/600_508333072.jpeg
AWS User Group Kolkata,"Kolkata, India",https://www.meetup.com/awsugkol/,General AWS User Groups,22.5726459,88.3638953,meetup,3162,https://secure.meetupstatic.com/photos/event/3/8/3/1/600_519254385.jpeg
AWS User Group Kosice,"Kosice, Slovakia",https://www.meetup.com/aws-user-group-kosice/,General AWS User Groups,48.7172272,21.2496774,meetup,222,https://secure.meetupstatic.com/photos/event/9/8/c/a/600_519459114.jpeg
AWS User Group Kosovo,"Prishtinë, Kosovo",https://www.meetup.com/meetup-group-JsQCXAlY/,General AWS User Groups,42.6638771,21.1640849,meetup,846,https://secure.meetupstatic.com/photos/event/d/8/4/9/600_510115369.jpeg
AWS User Group Krakow,"Krakow, Poland",https://www.meetup.com/AWS-User-Group-Krakow/,General AWS User Groups,50.0469432,19.9971534,meetup,2283,https://secure.meetupstatic.com/photos/event/9/d/8/5/600_495580325.jpeg
AWS User Group Kuopio,"Kuopio, Finland",https://www.meetup.com/aws-meetup-kuopio/,General AWS User Groups,62.8924601,27.6781839,meetup,70,https://secure.meetupstatic.com/photos/event/6/c/5/c/600_516627740.jpeg
AWS User Group Kyiv,"Kyiv, Ukraine",https://www.meetup.com/ru-RU/aws-user-group-kyiv/,General AWS User Groups,50.4485578,30.5271623,meetup,,https://secure.meetupstatic.com/photos/event/7/6/1/a/600_523050234.jpeg
AWS User Group Kyrgyzstan,"Bishkek, Kyrgyzstan",https://t.me/AWSUserGroupKyrgyzstan,General AWS User Groups,42.8839461,74.5803166,other,,
AWS User Group La Paz,"La Paz, Bolivia",https://www.meetup.com/aws-user-group-la-paz/,General AWS User Groups,-34.7447305,-56.231526,meetup,485,https://secure.meetupstatic.com/photos/event/2/3/a/a/600_515829130.jpeg
AWS User Group Lahore,"Pakistan, Lahore",https://www.linkedin.com/events/awsusergrouplahoremeetup-genera7200003130804031488,General AWS User Groups,31.5656822,74.3141829,other,,
AWS User Group Lahore,"Lahore, Pakistan",https://awscommunity.pk/,General AWS User Groups,31.5656822,74.3141829,other,,
AWS User Group Lancashire,"Burnley, United Kingdom",https://www.meetup.com/aws-user-group-lancashire/,General AWS User Groups,53.7907262,-2.2439196,meetup,86,https://secure.meetupstatic.com/photos/event/b/6/f/2/600_525286834.jpeg
AWS User Group Lanzhou,"Lanzhou, China",https://www.caws-ug.cn/index.html#/Home/OrganizerParticular?CityName=%E5%85%B0%E5%B7%9E&CityId=10340,General AWS User Groups,36.474436,103.733224,other,,
AWS User Group Las Palmas,"Las Palmas de Gran Canarias, Spain",https://www.meetup.com/aws-las-palmas-user-group/,General AWS User Groups,28.0745806,-15.4514821,meetup,301,https://secure.meetupstatic.com/photos/event/5/5/c/e/600_516681966.jpeg
AWS User Group Latvia,"Riga, Latvia",https://www.meetup.com/AWS-User-Group-Latvia/,General AWS User Groups,56.9410784,24.0967042,meetup,,
AWS User Group Lebanon,"Beirut, Lebanon",https://www.meetup.com/aws-ug-lb/,General AWS User Groups,33.8892265,35.5025585,meetup,298,https://secure.meetupstatic.com/photos/event/2/b/c/9/600_525731209.jpeg
AWS User Group Leon,"Leon, Mexico",https://www.meetup.com/aws-user-group-leon-gto/,General AWS User Groups,21.121965,-101.6829766,meetup,61,https://secure.meetupstatic.com/photos/event/a/1/3/4/600_524141268.jpeg
AWS User Group Liberia,"Monrovia, Liberia",https://www.meetup.com/aws-liberia/,General AWS User Groups,6.328034,-10.797788,meetup,296,https://secure.meetupstatic.com/photos/event/8/e/e/4/600_513756580.jpeg
AWS User Group Linz,"Linz, Austria",https://www.meetup.com/AWS-User-Group-Linz/,General AWS User Groups,48.3059078,14.286198,meetup,286,https://secure.meetupstatic.com/photos/event/e/0/5/4/600_520437428.jpeg
AWS User Group Lisbon,"Lisbon, Portugal",https://www.meetup.com/AWS-User-Group-Lisbon/,General AWS User Groups,38.7077507,-9.1365919,meetup,1893,https://secure.meetupstatic.com/photos/event/1/f/5/d/600_516728029.jpeg
AWS User Group Liverpool,"Liverpool, United Kingdom",https://www.meetup.com/AWS-User-Group-Liverpool/,General AWS User Groups,53.4071991,-2.99168,meetup,722,https://secure.meetupstatic.com/photos/event/c/4/d/7/600_475130391.jpeg
AWS User Group Ljubljana,"Ljubljana, Slovenia",https://www.meetup.com/AWS-User-Group-Ljubljana/,General AWS User Groups,46.0500268,14.5069289,meetup,511,https://secure.meetupstatic.com/photos/event/7/6/5/0/600_488190288.jpeg
AWS User Group Lodz,"Lodz, Poland",https://www.meetup.com/aws-user-group-łodź/,General AWS User Groups,51.7728245,19.4784857,meetup,99,https://secure.meetupstatic.com/photos/event/7/e/c/c/600_519332460.jpeg
"AWS User Group Lodz, Poland","Lodz, Poland",https://www.meetup.com/pl-PL/awsugpl/,General AWS User Groups,51.7728245,19.4784857,meetup,,https://secure.meetupstatic.com/photos/event/8/c/3/9/600_512435897.jpeg
AWS User Group Lublin,"Lublin, Poland",https://www.meetup.com/aws-user-group-lublin/,General AWS User Groups,51.2181945,22.5546776,meetup,499,https://secure.meetupstatic.com/photos/event/b/1/9/a/600_511665466.jpeg
AWS User Group Lusaka,"Lusaka, Zambia",https://www.meetup.com/aws-ug-zambia/?viewAsMember=true,General AWS User Groups,-15.4163395,28.2818414,meetup,235,https://secure.meetupstatic.com/next/images/shared/meetup-logo.jpg
AWS User Group MG,"Minas Gerais, Brazil",https://www.meetup.com/AWSUserGroupMG,General AWS User Groups,-18.5264844,-44.1588654,meetup,2308,https://secure.meetupstatic.com/photos/event/7/5/b/a/600_515550138.jpeg
AWS User Group ML Peru,"Lima, Peru",https://www.meetup.com/aws-ug-machine-learning-latam/,General AWS User Groups,-11.967575,-77.0113689,meetup,576,https://secure.meetupstatic.com/photos/event/c/f/8/c/600_517793132.jpeg
AWS User Group Macedonia,"Skopje, Macedonia",https://www.facebook.com/groups/awsusergroupmacedonia,General AWS User Groups,41.9961816,21.4319213,other,,
AWS User Group Machine Learning Latam,"Lima, Peru",https://www.meetup.com/aws-ug-machine-learning-latam/,General AWS User Groups,-11.967575,-77.0113689,meetup,576,https://secure.meetupstatic.com/photos/event/c/f/8/c/600_517793132.jpeg
AWS User Group Madurai,"Madurai, India",https://www.meetup.com/aws-user-group-madurai/,General AWS User Groups,9.9261153,78.1140983,meetup,1334,https://secure.meetupstatic.com/photos/event/c/1/4/8/600_511249480.jpeg
AWS User Group Malang,"Malang, Indonesia",https://www.meetup.com/aws-user-group-malang/,General AWS User Groups,-7.9771308,112.6340265,meetup,237,https://secure.meetupstatic.com/photos/event/a/d/5/9/600_504644377.jpeg
AWS User Group Malaysia,"Kuala Lumpur, Malaysia",https://www.facebook.com/groups/awsugmy/,General AWS User Groups,3.1526589,101.7022205,other,,
AWS User Group Malta,"Matla, CEE",https://www.meetup.com/aws-user-group-malta/,General AWS User Groups,,,meetup,593,https://secure.meetupstatic.com/photos/event/7/5/6/600_496381878.jpeg
AWS User Group Manizales,"Manizales, Colombia",https://www.meetup.com/aws-user-group-manizales/,General AWS User Groups,5.0743694,-75.5081167,meetup,300,https://secure.meetupstatic.com/photos/event/5/f/9/9/600_508944473.jpeg
AWS User Group Marche,"Ancona, Italy",https://www.meetup.com/AWS-User-Group-Marche/,General AWS User Groups,43.4801189,13.2187279,meetup,,
AWS User Group Maringá,"Maringá, Brazil",https://www.meetup.com/meetup-group-hafctguq/,General AWS User Groups,-23.425269,-51.9382078,meetup,173,https://secure.meetupstatic.com/photos/event/9/7/f/6/600_523598902.jpeg
AWS User Group Medan,"Medan, Indonesia",https://www.meetup.com/AWS-User-Group-Medan/,General AWS User Groups,3.5896654,98.6738261,meetup,511,https://secure.meetupstatic.com/photos/event/2/4/8/2/600_510129346.jpeg
AWS User Group Melbourne,"Melbourne, Australia",https://www.meetup.com/AWS-AUS/,General AWS User Groups,-37.8142454,144.9631732,meetup,6145,https://secure.meetupstatic.com/photos/event/5/d/2/0/600_456323840.jpeg
AWS User Group Merida Ops,"Merida, Mexico",https://www.meetup.com/comunidad-aws-merida-yucatan/,General AWS User Groups,20.9670759,-89.6237402,meetup,343,https://secure.meetupstatic.com/photos/event/c/e/a/1/600_521692897.jpeg
AWS User Group Mexicali,"Mexicali, Mexico",https://www.meetup.com/aws-user-group-mexicali/,General AWS User Groups,32.6405247,-115.474899,meetup,49,https://secure.meetupstatic.com/photos/event/3/e/b/c/600_521356060.jpeg
AWS User Group Milano,"Milano, Italy",https://www.meetup.com/AWSusergroupItaly/,General AWS User Groups,45.4641943,9.1896346,meetup,1743,https://secure.meetupstatic.com/photos/event/8/4/2/6/600_506853830.jpeg
AWS User Group Moldova,Moldova,https://www.meetup.com/amazon-web-services-user-group-md/,General AWS User Groups,47.2879608,28.5670941,meetup,120,https://secure.meetupstatic.com/photos/event/9/e/b/5/600_509920629.jpeg
AWS User Group Mongolia,"Ulaanbaatar, Mongolia",https://awsmongolia.com/,General AWS User Groups,47.9184676,106.9177016,other,,
AWS User Group Montenegro,"Podgorica, Montenegro",https://www.meetup.com/aws-ug-montenegro/,General AWS User Groups,42.4415238,19.2621081,meetup,388,https://secure.meetupstatic.com/photos/event/3/9/3/e/600_520514654.jpeg
AWS User Group Montevideo,"Montevideo, Uruguay",https://www.meetup.com/aws-user-group-montevideo/,General AWS User Groups,-34.9052121,-56.2114261,meetup,653,https://secure.meetupstatic.com/photos/event/a/8/5/9/600_511363097.jpeg
AWS User Group Mulhouse,"Mulhouse, France",https://www.meetup.com/fr-FR/mulhouse-aws-user-group/,General AWS User Groups,47.7467233,7.3389937,meetup,,https://secure.meetupstatic.com/next/images/shared/meetup-logo.jpg
AWS User Group Mumbai,"India, Mumbai",https://konfhub.com/generative-ai-worksop-on-aws,General AWS User Groups,19.054999,72.8692035,other,,
AWS User Group Mumbai,"Mumbai, India",https://www.meetup.com/awsugmum/,General AWS User Groups,19.054999,72.8692035,meetup,6435,https://secure.meetupstatic.com/photos/event/b/3/5/c/600_521625916.jpeg
AWS User Group Myanmar,"Myanmar, Myanmar",https://www.facebook.com/groups/AWSusergroupmyanmar/,General AWS User Groups,17.1750495,95.9999652,other,,
AWS User Group NCR,"Delhi, India",https://www.meetup.com/amazonaws-delhi/,General AWS User Groups,28.6273928,77.1716954,meetup,12581,https://secure.meetupstatic.com/photos/event/4/c/d/5/600_491959669.jpeg
AWS User Group Nairobi,"Nairobi, Kenya",https://www.meetup.com/AWS-User-Group-Nairobi/,General AWS User Groups,-1.3026148,36.828842,meetup,4797,https://secure.meetupstatic.com/photos/event/b/2/7/f/600_485145695.jpeg
AWS User Group Nancy,"Nancy, France",https://www.meetup.com/fr-FR/awsugnancy/,General AWS User Groups,48.6937223,6.1834097,meetup,,https://secure.meetupstatic.com/photos/event/b/3/6/600_517022870.jpeg
AWS User Group Napoli,Italy,https://www.meetup.com/AWS-User-Group-Napoli/,General AWS User Groups,42.6384261,12.674297,meetup,291,https://secure.meetupstatic.com/photos/event/1/c/7/7/600_520447287.jpeg
AWS User Group Nashik,"Nashik, India",https://www.linkedin.com/company/aws-user-group-nashik/about/,General AWS User Groups,20.0112475,73.7902364,other,,
AWS User Group Neiva,"Neiva, Colombia",https://www.meetup.com/aws-users-group-neiva/,General AWS User Groups,3.0332554,-75.2794303,meetup,110,https://secure.meetupstatic.com/photos/event/e/7/e/5/600_523739365.jpeg
AWS User Group Nepal,"Kathmandu, Nepal",https://www.meetup.com/Amazon-Web-Services-AWS-User-Group-Nepal/,General AWS User Groups,27.708317,85.3205817,meetup,1848,https://secure.meetupstatic.com/photos/event/8/b/0/2/600_505535586.jpeg
AWS User Group Niger,No location,https://www.meetup.com/aws-user-goup-niger/,General AWS User Groups,59.895137,10.7691233,meetup,413,https://secure.meetupstatic.com/next/images/shared/meetup-logo.jpg
AWS User Group Niger,"Niamey, Niger",https://www.linkedin.com/groups/12873776/,General AWS User Groups,13.5347128,2.0126899,other,,
AWS User Group North,"Manchester, United Kingdom",https://www.meetup.com/AWS-User-Group-North/,General AWS User Groups,53.4794892,-2.2451148,meetup,2884,https://secure.meetupstatic.com/photos/event/8/c/7/8/600_517535960.jpeg
AWS User Group North East England,"North East England, United Kingdom",https://www.meetup.com/AWS-User-Group-North-East-England/,General AWS User Groups,55.1314061,-2.0722867,meetup,1109,https://secure.meetupstatic.com/photos/event/8/a/2/5/600_482435365.jpeg
AWS User Group North East Scotland,"Dundee, UK",https://www.meetup.com/aws-user-group-north-east-scotland/,General AWS User Groups,56.4605938,-2.97019,meetup,294,https://secure.meetupstatic.com/photos/event/1/2/8/600_507780296.jpeg
AWS User Group North East Scotland,"UK, Dundee",https://www.meetup.com/aws-user-group-north-east-scotland/,General AWS User Groups,56.4605938,-2.97019,meetup,294,https://secure.meetupstatic.com/photos/event/1/2/8/600_507780296.jpeg
AWS User Group Norway,"Oslo, Norway",https://www.meetup.com/AWS-User-Group-Norway/,General AWS User Groups,59.9133301,10.7389701,meetup,2292,https://secure.meetupstatic.com/photos/event/e/5/5/5/600_518398709.jpeg
AWS User Group Novi Sad,"Novi Sad, Serbia",https://www.meetup.com/awsnovisad/,General AWS User Groups,45.2551338,19.8451756,meetup,577,https://secure.meetupstatic.com/photos/event/b/0/f/4/600_476145300.jpeg
AWS User Group Odessa,"Odessa, Ukraine",https://www.facebook.com/groups/191112881534813,General AWS User Groups,46.4843023,30.7322878,other,,
AWS User Group Olsztyn,"Olsztyn,  Poland",https://www.meetup.com/aws-user-group-olsztyn/,General AWS User Groups,53.7766839,20.476507,meetup,94,https://secure.meetupstatic.com/photos/event/6/5/4/7/600_523165927.jpeg
AWS User Group Orebro,"Orebro, Sweden",https://www.meetup.com/aws-user-group-orebro/,General AWS User Groups,59.2747287,15.2151181,meetup,67,https://secure.meetupstatic.com/photos/event/b/e/d/600_520263053.jpeg
AWS User Group Oresund,"Malmö, Sweden",https://www.meetup.com/AWS-User-Group-Oresund/,General AWS User Groups,55.6052931,13.0001566,meetup,630,https://secure.meetupstatic.com/photos/event/6/9/5/d/600_526586973.jpeg
AWS User Group Orizaba,"Orizaba, Mexico",https://www.meetup.com/aws-user-group-orizaba/,General AWS User Groups,18.8497366,-97.1060062,meetup,121,https://secure.meetupstatic.com/photos/event/7/f/f/8/600_523352760.jpeg
AWS User Group Padova,"Padova, Italy",https://www.meetup.com/aws-user-group-padova/,General AWS User Groups,45.391408,11.8058487,meetup,325,https://secure.meetupstatic.com/photos/event/d/b/8/a/600_523736202.jpeg
AWS User Group Palermo,"Palermo, Italy",https://www.meetup.com/it-IT/aws-user-group-palermo/,General AWS User Groups,38.1112268,13.3524434,meetup,,
AWS User Group Palma Spain,"Palma, Spain",https://www.meetup.com/Amazon-Web-Services-User-Group-Palma-Spain/,General AWS User Groups,39.5695818,2.6500745,meetup,979,https://secure.meetupstatic.com/photos/event/9/c/d/f/600_520480159.jpeg
AWS User Group Panama,"Panamá, Panamá",https://www.meetup.com/AWS-User-Group-Panama/,General AWS User Groups,8.559559,-81.1308434,meetup,1594,https://secure.meetupstatic.com/photos/event/7/1/c/1/600_523949121.jpeg
AWS User Group Pavia,"Pavia, Italy",https://www.meetup.com/awsusergrouppavia/,General AWS User Groups,45.0368546,9.1378251,meetup,163,https://secure.meetupstatic.com/photos/event/b/b/b/e/600_519588062.jpeg
AWS User Group Perth,"Perth, Australia",https://www.meetup.com/Amazon-Web-Services-User-Group/,General AWS User Groups,-31.9558933,115.8605855,meetup,2077,https://secure.meetupstatic.com/photos/event/2/8/3/600_512520643.jpeg
AWS User Group Philippines,"Manila, Philippines",https://www.meetup.com/AWS-User-Group-Philippines/,General AWS User Groups,14.5904492,120.9803621,meetup,4125,https://secure.meetupstatic.com/photos/event/9/0/e/5/600_454117093.jpeg
AWS User Group Phnom Penh,"Phnom Penh, Cambodia",https://www.facebook.com/groups/aws.ug.phnompenh/,General AWS User Groups,11.549112,104.896529,other,,
AWS User Group Piaui,"Piaui, Brazil",https://www.meetup.com/aws-user-group-piaui/,General AWS User Groups,-7.6992782,-42.5043787,meetup,280,https://secure.meetupstatic.com/photos/event/d/6/6/d/600_523434893.jpeg
AWS User Group Plymouth,"Plymouth, United Kingdom",https://www.meetup.com/amazon-web-services-aws-user-group-plymouth/,General AWS User Groups,50.3714122,-4.1424451,meetup,43,https://secure.meetupstatic.com/photos/event/3/c/9/f/600_521535519.jpeg
AWS User Group Poland,"Warszawa, Poland",https://www.meetup.com/AWSUGPL/,General AWS User Groups,52.2337172,21.0714322,meetup,4863,https://secure.meetupstatic.com/photos/event/8/c/3/9/600_512435897.jpeg
AWS User Group Puebla,"Puebla, Mexico",https://www.meetup.com/awsugpue/,General AWS User Groups,18.833333,-98.0,meetup,190,https://secure.meetupstatic.com/photos/event/2/0/4/e/600_525968270.jpeg
AWS User Group Puerto Rico,"Puerto Rico, Puerto Rico",https://www.meetup.com/amazon-web-services-puerto-rico-user-group/,General AWS User Groups,-26.8167893,-55.0266912,meetup,512,https://secure.meetupstatic.com/photos/event/3/8/6/5/600_495854437.jpeg
AWS User Group Pune,"Pune, India",https://www.meetup.com/aws-user-group-pune/,General AWS User Groups,18.5213738,73.8545071,meetup,7915,https://secure.meetupstatic.com/photos/event/6/9/1/0/600_516206896.jpeg
AWS User Group Punjab,"Punjab, India",https://aws-pb.khalsa.tech/,General AWS User Groups,30.9293211,75.5004841,other,,
AWS User Group Pwani,"Mombasa, Kenya",https://www.meetup.com/awsugpwani/,General AWS User Groups,-4.05052,39.667169,meetup,618,https://secure.meetupstatic.com/photos/event/5/9/e/7/600_517763015.jpeg
AWS User Group Qatar,"Doha, Qatar",https://www.meetup.com/aws-user-group-qatar/,General AWS User Groups,25.2856329,51.5264162,meetup,875,https://secure.meetupstatic.com/photos/event/e/5/e/9/600_499438857.jpeg
AWS User Group Queretaro,"Queretaro, Mexico",https://www.meetup.com/es/amazon-web-services-queretaro/,General AWS User Groups,20.8052225,-99.8837376,meetup,,https://secure.meetupstatic.com/photos/event/7/7/2/0/600_480330496.jpeg
AWS User Group Québec City,"Québec, Canada",https://www.meetup.com/quebeccity-aws-user-group/,General AWS User Groups,52.4760892,-71.8258668,meetup,988,https://secure.meetupstatic.com/photos/event/8/2/e/8/600_510873512.jpeg
AWS User Group Rajkot,"Rajkot, India",https://bit.ly/awscommunityrajkot,General AWS User Groups,22.3053263,70.8028377,other,,
AWS User Group Recife,"Recife, Brazil",https://www.meetup.com/pt-BR/aws-user-group-recife/,General AWS User Groups,-8.0584933,-34.8848193,meetup,,https://secure.meetupstatic.com/photos/event/c/2/e/0/600_512209888.jpeg
AWS User Group Reykjavik,"Reykjavik, Iceland",https://www.meetup.com/aws-user-group-reykjavik/,General AWS User Groups,64.1055168,-21.8228825,meetup,324,https://secure.meetupstatic.com/photos/event/d/3/2/d/600_471534061.jpeg
AWS User Group Riga,"Riga, Latvia",https://www.meetup.com/aws-latvia-user-group/,General AWS User Groups,56.9410784,24.0967042,meetup,12,https://secure.meetupstatic.com/photos/event/b/1/1/8/600_524805336.jpeg
AWS User Group Roma,"Rome, Italy",https://www.meetup.com/Amazon-Web-Services-Rome/,General AWS User Groups,41.8933203,12.4829321,meetup,1507,https://secure.meetupstatic.com/photos/event/9/4/d/2/600_526178098.jpeg
AWS User Group Saarbrücken,"Saarbrücken, Germany",https://www.meetup.com/aws-user-group-saarland/,General AWS User Groups,49.234362,6.996379,meetup,131,https://secure.meetupstatic.com/photos/event/1/a/a/a/600_521706826.jpeg
AWS User Group Salento,"Salento, Italy",https://www.meetup.com/it-IT/aws-user-group-salento/,General AWS User Groups,40.248604,15.190058,meetup,,https://secure.meetupstatic.com/photos/event/2/2/2/4/600_515528740.jpeg
AWS User Group Saltillo,"Saltillo, México",https://www.meetup.com/aws-user-group-saltillo/,General AWS User Groups,25.4230425,-100.9927509,meetup,158,https://secure.meetupstatic.com/photos/event/b/6/f/2/600_517486834.jpeg
AWS User Group San Salvador,"San Salvador, El Salvador",https://www.meetup.com/AWS-User-Group-San-Salvador,General AWS User Groups,13.6989939,-89.1914249,meetup,453,https://secure.meetupstatic.com/photos/event/2/0/0/f/600_508628207.jpeg
AWS User Group Sarajevo,"Sarajevo, Bosnia & Herzegovina",https://www.meetup.com/AWS-User-Group-Sarajevo/,General AWS User Groups,43.8519774,18.3866868,meetup,433,https://secure.meetupstatic.com/photos/event/9/9/8/6/600_503679302.jpeg
AWS User Group Scotland,"Edinburgh, United Kingdom",https://www.meetup.com/Amazon-Web-Services-User-Group-Scotland/,General AWS User Groups,55.9533456,-3.1883749,meetup,1595,https://secure.meetupstatic.com/photos/event/a/7/7/d/600_526602877.jpeg
AWS User Group Seattle | AWSUGSEA,"Seattle, USA",https://www.meetup.com/AWS-Seattle-OfficialEvents/,General AWS User Groups,47.6038321,-122.330062,meetup,4049,https://secure.meetupstatic.com/photos/event/d/2/6/2/600_515273858.jpeg
AWS User Group Sergipe,"Aracaju, Brasil",https://www.meetup.com/aws-user-group-sergipe/,General AWS User Groups,-10.9162061,-37.0774655,meetup,291,https://secure.meetupstatic.com/photos/event/8/a/c/f/600_521975535.jpeg
AWS User Group Serverless NYC,"New York City, New York, USA",https://www.meetup.com/aws-serverless-group-new-york/,General AWS User Groups,40.7127281,-74.0060152,meetup,1976,https://secure.meetupstatic.com/photos/event/c/b/a/9/600_466192137.jpeg
AWS User Group Sevilla,"Sevilla, Spain",https://www.meetup.com/aws-user-group-sevilla/,General AWS User Groups,37.3886303,-5.9953403,meetup,305,https://secure.meetupstatic.com/photos/event/9/9/8/2/600_516159298.jpeg
AWS User Group Shanghai,"Shanghai, China",https://www.caws-ug.cn,General AWS User Groups,31.2312707,121.4700152,other,,
AWS User Group Sheffield,Sheffield,https://www.meetup.com/AWSSheffield/,General AWS User Groups,53.3806626,-1.4702278,meetup,769,https://secure.meetupstatic.com/photos/event/8/d/b/0/600_477696272.jpeg
AWS User Group Shenzhen,"Shenzhen, China",https://www.caws-ug.cn/index.html#/Home/OrganizerParticular?CityName=%E6%B7%B1%E5%9C%B3&CityId=10310,General AWS User Groups,22.5445741,114.0545429,other,,
AWS User Group Silesia,"Silesia, Katowice, Poland",https://www.meetup.com/aws-user-group-silesia,General AWS User Groups,50.2606627,19.0292035,meetup,412,https://secure.meetupstatic.com/photos/event/c/5/5/b/600_513290523.jpeg
AWS User Group Singapore,"Singapore, Singapore",https://www.meetup.com/AWS-SG/,General AWS User Groups,1.2899175,103.8519072,meetup,9796,https://secure.meetupstatic.com/photos/event/9/f/b/7/600_465040887.jpeg
AWS User Group Slovakia,"Bratislava, Slovakia",https://www.meetup.com/AWS-User-Group-Slovakia/,General AWS User Groups,48.1516988,17.1093063,meetup,585,https://secure.meetupstatic.com/photos/event/7/9/3/f/600_523711039.jpeg
AWS User Group Stavanger,"Stavanger, Norway",https://www.meetup.com/AWS-User-Group-Stavanger/,General AWS User Groups,58.9684334,5.7540033,meetup,291,https://secure.meetupstatic.com/photos/event/3/9/6/9/600_468734697.jpeg
AWS User Group Strasbourg,"Strasbourg, France",https://www.meetup.com/AWS-User-Group-Strasbourg/,General AWS User Groups,48.584614,7.7507127,meetup,512,https://secure.meetupstatic.com/photos/event/c/d/0/b/600_497632491.jpeg
AWS User Group Stuttgart,"Stuttgart, Germany",https://www.meetup.com/AWS-UserGroup-Stuttgart/,General AWS User Groups,48.7784485,9.1800132,meetup,1244,https://secure.meetupstatic.com/photos/event/6/7/d/4/600_523166580.jpeg
AWS User Group Surabaya,"Surabaya, Indonesia",https://www.meetup.com/AWS-User-Group-Surabaya/,General AWS User Groups,-7.2459717,112.7378266,meetup,1470,https://secure.meetupstatic.com/photos/event/1/6/b/9/600_520985817.jpeg
AWS User Group Surat,"Surat, India",https://www.meetup.com/surat-aws-user-group/,General AWS User Groups,21.2094892,72.8317058,meetup,2448,https://secure.meetupstatic.com/photos/event/c/0/9/6/600_523669302.jpeg
AWS User Group Surat,"India, Surat",https://www.meetup.com/surat-aws-user-group/,General AWS User Groups,21.2094892,72.8317058,meetup,2448,https://secure.meetupstatic.com/photos/event/c/0/9/6/600_523669302.jpeg
AWS User Group Sydney,"Sydney, Australia",https://www.meetup.com/AWS-Sydney/,General AWS User Groups,-33.8698439,151.2082848,meetup,6101,https://secure.meetupstatic.com/photos/event/a/d/a/5/600_520304453.jpeg
AWS User Group Tacna,"Tacna, Peru",https://www.meetup.com/aws-user-group-tacna/,General AWS User Groups,-18.01386,-70.2511032,meetup,68,https://secure.meetupstatic.com/photos/event/9/3/2/6/600_522757670.jpeg
AWS User Group Taiwan,"Taiwan, Taipei",https://awscmd.tw/,General AWS User Groups,25.0375198,121.5636796,other,,
AWS User Group Taiwan,Taiwan,https://www.facebook.com/groups/awsugtw/,General AWS User Groups,23.5983227,120.8353769,other,,
AWS User Group Tampere,"Tampere, Finland",https://www.meetup.com/AWS-User-Group-Tampere/,General AWS User Groups,61.4980214,23.7603118,meetup,720,https://secure.meetupstatic.com/photos/event/7/d/6/e/600_485432110.jpeg
AWS User Group Tashkent,"Tashkent, Uzbekistan",https://www.meetup.com/aws-tashkent/,General AWS User Groups,41.3123363,69.2787079,meetup,1337,https://secure.meetupstatic.com/photos/event/5/5/7/d/600_507921885.jpeg
AWS User Group Tashkent,"Uzbekistan, Tashkent",https://www.meetup.com/aws-tashkent/,General AWS User Groups,41.3123363,69.2787079,meetup,1337,https://secure.meetupstatic.com/photos/event/5/5/7/d/600_507921885.jpeg
AWS User Group Tbilisi,"Tbilisi, Georgia",https://www.meetup.com/AWS-User-Group-Tbilisi/,General AWS User Groups,41.6934591,44.8014495,meetup,1094,https://secure.meetupstatic.com/photos/event/b/9/6/0/600_527447456.jpeg
AWS User Group Thailand,"Bangkok, Thailand",https://www.facebook.com/groups/696722700418928/,General AWS User Groups,13.7524938,100.4935089,other,,
AWS User Group Thames Valley,"Thames Valley, United Kingdom",https://www.meetup.com/AWS-User-Group-Thames-Valley/,General AWS User Groups,51.7624591,-1.1779788,meetup,520,https://secure.meetupstatic.com/photos/event/6/2/5/f/600_510325183.jpeg
AWS User Group The Netherlands,"Netherlands, Haarlem",https://www.meetup.com/awsugnl/,General AWS User Groups,52.3885317,4.6388048,meetup,4627,https://secure.meetupstatic.com/photos/event/5/9/8/1/600_519082913.jpeg
AWS User Group Ticino,"Lugano, Switzerland",https://www.meetup.com/AWS-User-Group-Ticino/,General AWS User Groups,46.0050102,8.9520281,meetup,363,https://secure.meetupstatic.com/photos/event/5/d/8/4/600_494603940.jpeg
AWS User Group Tijuana,"Tijuana, Mexico",https://www.meetup.com/aws-ug-tijuana/,General AWS User Groups,32.5317397,-117.019529,meetup,184,https://secure.meetupstatic.com/photos/event/4/7/a/3/600_508638339.jpeg
AWS User Group Tirane,"Tiranë, Albania",https://www.meetup.com/AWS-User-Group-Tirane/,General AWS User Groups,41.3281482,19.8184435,meetup,849,https://secure.meetupstatic.com/photos/event/4/4/6/0/600_474917504.jpeg
AWS User Group Tirupati,"Tirupati, India",https://www.meetup.com/aws-user-group-tirupati/,General AWS User Groups,13.6316368,79.4231711,meetup,894,https://secure.meetupstatic.com/photos/event/4/1/e/e/600_527476878.jpeg
AWS User Group Torino,"Turin, Italy",https://www.meetup.com/AWS-User-Group-Torino/,General AWS User Groups,45.0249632,7.6718367,meetup,616,https://secure.meetupstatic.com/photos/event/b/f/e/2/600_516529122.jpeg
AWS User Group Triangulo Mineiro,"Uberlandia, Brazil",https://www.meetup.com/aws-user-group-triangulo-mineiro/,General AWS User Groups,-18.9188041,-48.2767837,meetup,745,https://secure.meetupstatic.com/photos/event/9/b/f/f/600_509559935.jpeg
AWS User Group Trivandrum,"Trivandrum, India",https://www.meetup.com/awsug-tvm/,General AWS User Groups,8.4882267,76.947551,meetup,1418,https://secure.meetupstatic.com/photos/event/4/c/6/3/600_484039555.jpeg
AWS User Group Trondheim,"Trondheim, Norway",https://www.meetup.com/AWS-User-Group-Trondheim,General AWS User Groups,63.4304475,10.3952118,meetup,380,https://secure.meetupstatic.com/photos/event/5/b/d/7/600_467903511.jpeg
AWS User Group Trujillo,"Trujillo, Peru",https://www.meetup.com/aws-ug-lima/,General AWS User Groups,-8.1116778,-79.0287742,meetup,159,https://secure.meetupstatic.com/photos/event/c/8/8/2/600_524751330.jpeg
AWS User Group Trujillo,"Trujillo, Peru",https://www.meetup.com/es/aws-ug-trujillo/,General AWS User Groups,-8.1116778,-79.0287742,meetup,,https://secure.meetupstatic.com/photos/event/c/8/8/2/600_524751330.jpeg
AWS User Group Tubarão,"Tubarão, Brasil",https://www.meetup.com/tubaraoops/,General AWS User Groups,-28.471488,-49.014132,meetup,129,https://secure.meetupstatic.com/photos/event/9/9/3/f/600_516459231.jpeg
AWS User Group Turkey,"Istanbul, Turkey",https://www.meetup.com/AWS-User-Group-Turkey/,General AWS User Groups,41.006381,28.9758715,meetup,6733,https://secure.meetupstatic.com/photos/event/a/1/3/6/600_527141270.jpeg
AWS User Group UK,"London, United Kingdom",https://www.meetup.com/AWSUGUK/,General AWS User Groups,51.4893335,-0.1440551,meetup,9679,https://secure.meetupstatic.com/photos/event/8/0/f/a/600_522213018.jpeg
AWS User Group Udaipur,"Udaipur, India",https://www.meetup.com/aws-user-groups-udaipur/,General AWS User Groups,24.578721,73.6862571,meetup,106,https://secure.meetupstatic.com/photos/event/e/9/e/b/600_526439883.jpeg
AWS User Group Ukraine Lviv,"Lviv, Ukraine",https://www.meetup.com/Official-AWS-User-Group-Lviv-Ukraine/,General AWS User Groups,49.4810342,22.7015261,meetup,573,https://secure.meetupstatic.com/photos/event/d/b/a/a/600_496676234.jpeg
AWS User Group Ulm Neu Ulm,"Ulm/Neu-Ulm, Germany",https://www.meetup.com/AWS-User-Group-Ulm-Neu-Ulm/,General AWS User Groups,48.2929309,10.1698105,meetup,157,https://secure.meetupstatic.com/photos/event/b/0/3/600_479642819.jpeg
AWS User Group Vadodara,"Vadodara, India",https://www.meetup.com/AWS-Community-Vadodara/,General AWS User Groups,22.2973142,73.1942567,meetup,3563,https://secure.meetupstatic.com/photos/event/e/8/7/3/600_523619507.jpeg
AWS User Group Venezia,"Venezia, Italy",https://www.meetup.com/aws-user-group-venezia/,https://www.meetup.com/aws-user-group-venezia/,45.6333903,13.0449188,meetup,444,https://secure.meetupstatic.com/photos/event/8/8/7/7/600_523654935.jpeg
AWS User Group Vietnam,"Vietnam, Vietnam",https://www.facebook.com/AmazonWebServiceVietnam,General AWS User Groups,15.9266657,107.9650855,other,,
AWS User Group Villahermosa,"Villahermosa, México",https://www.meetup.com/aws-ug-villahermosa/,General AWS User Groups,17.9884657,-92.9366326,meetup,228,https://secure.meetupstatic.com/photos/event/a/d/1/2/600_517424306.jpeg
AWS User Group Warsaw,"Warsaw, Poland",https://www.meetup.com/pl-PL/aws-user-group-warsaw/,General AWS User Groups,52.2337172,21.0714322,meetup,,https://secure.meetupstatic.com/photos/event/6/1/e/5/600_516145061.jpeg
AWS User Group Wellington,"Wellington, New Zealand",https://www.meetup.com/Amazon-Web-Services-Wellington-User-Group/,General AWS User Groups,-41.2887953,174.7772114,meetup,2249,https://secure.meetupstatic.com/photos/event/3/1/1/600_483840785.jpeg
AWS User Group West Midlands,"Birmingham, United Kingdom",https://www.meetup.com/AWS-User-Group-West-Midlands/,General AWS User Groups,52.4796992,-1.9026911,meetup,1483,https://secure.meetupstatic.com/photos/event/6/8/3/a/600_526886682.jpeg
AWS User Group Western Visayas,"Bacolod, Philippines",https://www.meetup.com/AWS-Usergroup-PH-Western-Visayas/,General AWS User Groups,10.6762836,122.9513786,meetup,257,https://secure.meetupstatic.com/photos/event/5/6/a/5/600_467722181.jpeg
AWS User Group Wilmington,"Wilmington, USA",https://www.meetup.com/wilmington-aws-user-group/,General AWS User Groups,39.7459468,-75.546589,meetup,68,https://secure.meetupstatic.com/photos/event/c/5/f/600_518763167.jpeg
AWS User Group Women Bay Area,"San Francisco, California, USA",https://www.meetup.com/aws-women-bay-area/,General AWS User Groups,37.7792588,-122.4193286,meetup,333,https://secure.meetupstatic.com/photos/event/3/8/1/6/600_519674358.jpeg
AWS User Group Women Ecuador,"Quito, Ecuador",https://www.meetup.com/aws-women-ecuador/,General AWS User Groups,-0.2605617,-78.5495219,meetup,365,https://secure.meetupstatic.com/photos/event/d/5/9/8/600_517794680.jpeg
AWS User Group Women in Tech India,India,https://www.meetup.com/aws-user-group-women-in-tech-india/,General AWS User Groups,22.3511148,78.6677428,meetup,1426,https://secure.meetupstatic.com/photos/event/4/3/2/a/600_521537194.jpeg
AWS User Group Wuhan,"Wuhan, China",https://www.caws-ug.cn/index.html#/Home/OrganizerParticular?CityName=%E6%AD%A6%E6%B1%89&CityId=10315,General AWS User Groups,30.5951051,114.2999353,other,,
AWS User Group Xi'an,"Xi'an, China",https://www.caws-ug.cn/index.html#/Home/OrganizerParticular?CityName=%E8%A5%BF%E5%AE%89&CityId=10311,General AWS User Groups,34.261004,108.9423363,other,,
AWS User Group Yaounde,"Yaounde, Cameroon",https://www.meetup.com/aws-user-group-yaounde/,General AWS User Groups,3.8689867,11.5213344,meetup,485,https://secure.meetupstatic.com/photos/event/1/f/4/0/600_508448000.jpeg
AWS Usergroup Belfast,"Belfast, United Kingdom",https://www.meetup.com/AWS-Usergroup-Belfast/,General AWS User Groups,54.5975804,-5.9277097,meetup,817,https://secure.meetupstatic.com/photos/event/9/5/d/b/600_460358363.jpeg
AWS Usergroup Brisbane,"Australia, Brisbane",https://www.meetup.com/aws-brisbane/,General AWS User Groups,-27.4689682,153.0234991,meetup,3446,https://secure.meetupstatic.com/photos/event/c/2/2/1/600_520249697.jpeg
AWS Usergroup Munsterland,"Münster, Germany",https://www.meetup.com/AWS-Usergroup-Munsterland/,General AWS User Groups,51.9625101,7.6251879,meetup,369,https://secure.meetupstatic.com/photos/event/1/8/7/8/600_475986264.jpeg
AWS Users Cyprus,"Nicosia, Cyprus",https://www.meetup.com/aws-users-cyprus/,General AWS User Groups,35.1746503,33.3638783,meetup,354,https://secure.meetupstatic.com/photos/event/c/0/4/b/600_514309227.jpeg
AWS Users Group CE,"Ceará, Brazil",https://www.meetup.com/AWS-Users-Group-CE/,General AWS User Groups,-5.3264703,-39.7156073,meetup,1076,https://secure.meetupstatic.com/photos/event/c/8/a/c/600_489711372.jpeg
AWS Valencia,"Valencia, Spain",https://www.meetup.com/AWS-Valencia/,General AWS User Groups,39.4697065,-0.3763353,meetup,1507,https://secure.meetupstatic.com/photos/event/8/e/5/0/600_525696432.jpeg
AWS Vienna,"Vienna, Austria",https://www.meetup.com/Amazon-Web-Services-AWS-Vienna/,General AWS User Groups,48.2083537,16.3725042,meetup,2017,https://secure.meetupstatic.com/photos/event/9/8/d/5/600_523779125.jpeg
AWS Well Architected User Group Auckland,"Auckland, New Zealand",https://www.meetup.com/aws-auckland-well-architected-user-group/,General AWS User Groups,-36.852095,174.7631803,meetup,624,https://secure.meetupstatic.com/photos/event/6/b/5/4/600_523707476.jpeg
AWS Well Architected User Group Canberra,"Canberra, Australia",https://www.meetup.com/aws-canberra-well-architected-user-group/,General AWS User Groups,-35.2975906,149.1012676,meetup,129,https://secure.meetupstatic.com/photos/event/5/e/8/600_526741512.jpeg
AWS Wollongong User Group,"Wollongong, Australia",https://www.meetup.com/aws-wollongong/,General AWS User Groups,-34.4243941,150.89385,meetup,265,https://secure.meetupstatic.com/photos/event/e/4/8/2/600_515338498.jpeg
AWS Women Colombia User Group,"Bogotá, Colombia",https://www.meetup.com/es/aws-women-colombia-user-group/,Women's User Groups,4.7110053,-74.0720857,meetup,,https://secure.meetupstatic.com/photos/event/7/e/9/e/600_496652414.jpeg
AWS Women in Tech User Group Australia,No location,https://www.meetup.com/aws-women-in-tech-user-group-australia/,General AWS User Groups,59.895137,10.7691233,meetup,277,https://secure.meetupstatic.com/photos/event/7/d/2/c/600_522932044.jpeg
AWS Women in Tech User Group Lahore,"Lahore, Pakistan",https://www.meetup.com/aws-user-group-women-in-tech-lahore/,General AWS User Groups,31.5656822,74.3141829,meetup,298,https://secure.meetupstatic.com/photos/event/c/3/0/c/600_523729932.jpeg
AWS Women's User Group Berlin,"Berlin, Germany",https://www.meetup.com/berlin-amazon-web-services-meetup-group/,General AWS User Groups,52.510885,13.3989367,meetup,748,https://secure.meetupstatic.com/photos/event/6/3/6/0/600_515305440.jpeg
AWS Womens User Group Munich,"Munich, Germany",https://www.meetup.com/de-DE/aws-womens-user-group-munich/,General AWS User Groups,48.1371079,11.5753822,meetup,,https://secure.meetupstatic.com/photos/event/2/e/5/b/600_523991867.jpeg
AWS Womens User Group Tunisia,Tunisia,https://www.meetup.com/aws-womens-user-group-tunisia/,General AWS User Groups,36.8002068,10.1857757,meetup,59,https://secure.meetupstatic.com/photos/event/3/7/4/3/600_526574147.jpeg
AWS Womens User Group UAE,"Dubai, UAE",https://www.linkedin.com/company/aws-womens-user-group-uae/,General AWS User Groups,25.2277355,55.1749996,other,,
AWS Womens User Group UAE,"Dubai, United Arab Emirates",https://www.meetup.com/aws-womens-user-group-uae/,General AWS User Groups,25.2277355,55.1749996,meetup,91,https://secure.meetupstatic.com/photos/event/4/d/1/b/600_525499739.jpeg
AWS Zaragoza User Group,"Zaragoza, Spain",https://www.meetup.com/awszgz/,General AWS User Groups,41.6521342,-0.8809428,meetup,771,https://secure.meetupstatic.com/photos/event/7/3/0/d/600_515549453.jpeg
AWSKRUG Architect,Korea,https://github.com/awskrug/architecture-group,EC2 / Windows,37.9528488,126.7331171,other,,
AWSKRUG Beginner,Korea,https://github.com/awskrug/meetups/wiki/AWSKRUG-Beginners,General AWS User Groups,37.9528488,126.7331171,other,,
AWSKRUG CLI,Korea,https://github.com/awskrug/cli-group,General AWS User Groups,37.9528488,126.7331171,other,,
AWSKRUG Container,Korea,https://github.com/awskrug/container-group,Containers,37.9528488,126.7331171,other,,
AWSKRUG DataScience,Korea,https://github.com/awskrug/datascience-group,Analytics,37.9528488,126.7331171,other,,
AWSKRUG Database,Korea,https://github.com/awskrug/database-group,Databases,37.9528488,126.7331171,other,,
AWSKRUG DeepRacer,Korea,https://github.com/awskrug/deepracer-group,AI/ML,37.9528488,126.7331171,other,,
AWSKRUG DevAx Connect,Korea,https://github.com/awskrug/meetups/wiki/AWSKRUG-DevAx-Connect,Customer Enablement / ProServe,37.9528488,126.7331171,other,,
AWSKRUG DevOps,Korea,https://github.com/awskrug/devops-group,General AWS User Groups,37.9528488,126.7331171,other,,
AWSKRUG Enterprise,Korea,https://github.com/awskrug/meetups/wiki/AWSKRUG-Enterprise,Migration,37.9528488,126.7331171,other,,
AWSKRUG Facebook,Korea,https://www.facebook.com/group/awskrug,General AWS User Groups,37.9528488,126.7331171,other,,
AWSKRUG Guro,Korea,https://github.com/awskrug/gudi-group,General AWS User Groups,37.9528488,126.7331171,other,,
AWSKRUG Jamsil,Korea,https://github.com/awskrug/meetups/wiki/AWSKRUG-Jamsil,General AWS User Groups,37.9528488,126.7331171,other,,
AWSKRUG ML Study,Korea,https://github.com/awskrug/meetups/wiki/AWSKRUG-ML-Study,AI/ML,37.9528488,126.7331171,other,,
AWSKRUG Naver,Korea,https://cafe.naver.com/awskrug,General AWS User Groups,37.9528488,126.7331171,other,,
AWSKRUG Pankyo,Korea,https://github.com/awskrug/pangyo-group,General AWS User Groups,37.9528488,126.7331171,other,,
AWSKRUG Security,Korea,https://github.com/awskrug/meetups/wiki/AWSKRUG-Security,Security,37.9528488,126.7331171,other,,
AWSKRUG Serverless,Korea,https://github.com/awskrug/serverless-group,Serverless,37.9528488,126.7331171,other,,
AWSKRUG Slack,Korea,https://awskrug.slack.com,General AWS User Groups,37.9528488,126.7331171,other,,
AWSKRUG Startups,Korea,https://github.com/awskrug/meetups/wiki/AWSKRUG-Startups,General AWS User Groups,37.9528488,126.7331171,other,,
AWSKRUG University Students (AUSG),Korea,https://ausg.me/,General AWS User Groups,37.9528488,126.7331171,other,,
AWSKRUG iot,"South Korea, Seoul",https://www.meetup.com/ko-KR/,General AWS User Groups,37.5666791,126.9782914,meetup,,https://secure.meetupstatic.com/next/images/shared/meetup-logo.jpg
Aix-Marseille AWS User Group,"Marseille, France",https://www.meetup.com/Marseille-AWS-User-Group/,General AWS User Groups,43.2961743,5.3699525,meetup,332,https://secure.meetupstatic.com/photos/event/2/3/6/a/600_497829066.jpeg
Algarve AWS User Group,"Loulé, Portugal",https://www.meetup.com/loule-cloud-computing-meetup-group/,General AWS User Groups,37.1395485,-8.0232598,meetup,,
Amazon Connect State of California Government User Group,No location,https://www.meetup.com/amazon-connect-state-of-california-government-user-group/,General AWS User Groups,59.895137,10.7691233,meetup,29,https://secure.meetupstatic.com/photos/event/3/1/d/0/600_525612752.jpeg
Amazon OpenSearch Service User Group,"New York City, New York, USA",https://www.meetup.com/amazon-opensearch-user-group/,General AWS User Groups,40.7127281,-74.0060152,meetup,,
Amazon Web Services (AWS) San Antonio Users Group,"San Antonio, Texas, USA",https://www.meetup.com/Amazon-Web-Services-AWS-San-Antonio-Users-Group/,General AWS User Groups,29.4246002,-98.4951405,meetup,956,https://secure.meetupstatic.com/photos/event/1/a/1/4/600_471846676.jpeg
Amazon Web Services (AWS) User Group - PITTSBURGH,"Pittsburgh, Pennsylvania, USA",https://www.meetup.com/Pittsburgh-Amazon-Web-Services-AWS-Users/,General AWS User Groups,40.4416941,-79.9900861,meetup,1176,https://secure.meetupstatic.com/photos/event/7/f/6/3/600_469772611.jpeg
Amazon Web Services - Frederick,"Frederick, Maryland, USA",https://www.meetup.com/awsfrederick/,General AWS User Groups,39.415779,-77.4127562,meetup,745,https://secure.meetupstatic.com/photos/event/c/0/0/6/600_485029158.jpeg
Amplify Japan User Group,Tokyo,https://aws-amplify-jp.github.io/,Front-End Web & Mobile,35.6768601,139.7638947,other,,
Atlanta AWS Builders (Buckhead),"Atlanta, Georgia, USA",https://www.meetup.com/Atlanta-AWS-Builders/,General AWS User Groups,33.7489924,-84.3902644,meetup,3100,https://secure.meetupstatic.com/photos/event/7/9/5/3/600_467491059.jpeg
Auckland AWS Tools and Programming,"Auckland, Australia",https://www.meetup.com/auckland-aws-tools-meetup/,General AWS User Groups,-36.8622961,174.7190716,meetup,1256,https://secure.meetupstatic.com/photos/event/4/6/f/1/600_526698161.jpeg
Auckland AWS Tools and Programming User Group,"Auckland, New Zealand",https://www.meetup.com/auckland-aws-tools-meetup/,General AWS User Groups,-36.852095,174.7631803,meetup,1256,https://secure.meetupstatic.com/photos/event/4/6/f/1/600_526698161.jpeg
Austin AWS Users,"Austin, Texas, USA",https://www.meetup.com/Austin-AWS-Users/,General AWS User Groups,30.2711286,-97.7436995,meetup,3982,https://secure.meetupstatic.com/photos/event/d/0/7/f/600_450413375.jpeg
Barcelona AWS Meetup,"Barcelona, Spain",https://www.meetup.com/Barcelona-Amazon-Web-Services-Meetup/,General AWS User Groups,41.3828939,2.1774322,meetup,2938,https://secure.meetupstatic.com/photos/event/a/6/c/e/600_524682702.jpeg
Bay Area AWS User Group,"San Jose, California, USA",https://www.meetup.com/Bay-Area-AWS-User-Group/,General AWS User Groups,37.3361663,-121.890591,meetup,1492,https://secure.meetupstatic.com/photos/event/2/b/5/f/600_452351103.jpeg
BelfAWSt Meetup,"Nothern Ireland, UK",https://www.meetup.com/belfawst-meetup/,General AWS User Groups,,,meetup,521,https://secure.meetupstatic.com/photos/event/8/8/2/4/600_518554852.jpeg
Berlin AWS User Group,"Berlin, Germany",https://www.meetup.com/aws-berlin/,General AWS User Groups,52.510885,13.3989367,meetup,6366,https://secure.meetupstatic.com/photos/event/1/4/c/2/600_495125314.jpeg
Birmingham AWS Meetup,"Birmingham, Alabama, USA",https://www.meetup.com/BirminghamAWS/,General AWS User Groups,33.5206824,-86.8024326,meetup,606,https://secure.meetupstatic.com/photos/event/d/a/b/2/600_490795986.jpeg
Bordeaux AWS User Group,"Bordeaux, France",https://www.meetup.com/fr-FR/Bordeaux-Amazon-Web-Services,General AWS User Groups,44.841225,-0.5800364,meetup,,https://secure.meetupstatic.com/photos/event/c/5/9/3/600_497630579.jpeg
Brisbane Data Engineering Meetup,"Brisbane, Australia",https://www.meetup.com/Brisbane-Data-Engineering-meetup/,Analytics,-27.4689682,153.0234991,meetup,579,https://secure.meetupstatic.com/photos/event/5/c/2/6/600_522623590.jpeg
Bucharest AWS User Group,"Bucharest, Romania",https://www.meetup.com/Bucharest-AWS-User-Group/,General AWS User Groups,44.4361414,26.1027202,meetup,848,https://secure.meetupstatic.com/photos/event/9/6/0/1/600_515798401.jpeg
Calgary AWS User Group,"Calgary, Alberta, Canada",https://www.meetup.com/Calgary-AWS-User-Group/,General AWS User Groups,51.0456064,-114.057541,meetup,1200,https://secure.meetupstatic.com/photos/event/7/e/9/1/600_489812401.jpeg
Cape Town AWS Meetup,"South Africa, Cape Town",https://www.meetup.com/cape-town-aws/,General AWS User Groups,-33.9288301,18.4172197,meetup,2385,https://secure.meetupstatic.com/photos/event/a/9/8/6/600_526003398.jpeg
Charleston Amazon Web Services (AWS),"Mount Pleasant, USA",https://www.meetup.com/chs-amazon-web-services/,General AWS User Groups,33.1570582,-94.9694007,meetup,586,https://secure.meetupstatic.com/photos/event/6/2/0/1/600_510505089.jpeg
Chicago AWS User Group,"Chicago, Illinois, USA",https://www.eventbrite.com/o/chicago-aws-user-group-16580522862,General AWS User Groups,41.8755616,-87.6244212,other,,
Cologne AWS User Group,"Köln, Germany",https://www.meetup.com/aws-cologne/,General AWS User Groups,50.938361,6.959974,meetup,1837,https://secure.meetupstatic.com/photos/event/e/4/3/8/600_518038424.jpeg
Columbia AWS User Group,"Columbia, South Carolina, USA",https://www.meetup.com/columbia-aws-users-group/,General AWS User Groups,34.000754,-81.0352313,meetup,112,https://secure.meetupstatic.com/photos/event/6/0/a/6/600_517704742.jpeg
Columbus AWS AWS Meetup,"Columbus, Ohio, USA",https://www.meetup.com/Columbus-AWS-Amazon-Web-Services-Meetup/,General AWS User Groups,39.9622601,-83.0007065,meetup,2784,https://secure.meetupstatic.com/photos/event/c/8/b/600_507603211.jpeg
Copenhagen AWS User Group,"Copenhagen, Denmark",https://www.meetup.com/es-ES/Copenhagen-AWS-User-Group/,General AWS User Groups,55.6867243,12.5700724,meetup,,https://secure.meetupstatic.com/photos/event/5/5/a/9/600_495981929.jpeg
Criciumaops,"Criciúma, Brazil",https://www.linkedin.com/company/criciumaops,General AWS User Groups,-28.6789941,-49.3695627,other,,
Côte d’Azur AWS User Group,"Côte d’Azur, France",https://www.meetup.com/AWS-cote-dAzur/,General AWS User Groups,43.4264175,6.7226618,meetup,468,https://secure.meetupstatic.com/photos/event/c/5/9/c/600_497630588.jpeg
Dortmund AWS User Group,"Dortmund, Germany",https://www.meetup.com/Dortmund-AWS-User-Group/,General AWS User Groups,51.5142273,7.4652789,meetup,1180,https://secure.meetupstatic.com/photos/event/9/2/7/a/600_507097498.jpeg
Dresden AWS User Group,"Dresden, Germany",https://www.meetup.com/Dresden-AWS-User-Group,General AWS User Groups,51.0493286,13.7381437,meetup,610,https://secure.meetupstatic.com/photos/event/7/f/4/4/600_469592580.jpeg
Education-JAWS,"Tokyo, Japan",https://education-jaws.connpass.com/,General AWS User Groups,35.6768601,139.7638947,other,,
Embajadoras Cloud,"Mexico City, Mexico",https://www.meetup.com/Embajadoras-Cloud,Women's User Groups,19.3207722,-99.1514678,meetup,1157,https://secure.meetupstatic.com/photos/event/2/2/b/a/600_526508890.jpeg
Florida AWS Security Users Meetup Group,"Orlando, USA",https://www.meetup.com/florida-aws-security-meetup-group/,General AWS User Groups,28.5421109,-81.3790304,meetup,892,https://secure.meetupstatic.com/photos/event/a/1/3/3/600_509441267.jpeg
Frankfurt AWS User Group,"Frankfurt, Germany",https://www.meetup.com/aws-frankfurt/,General AWS User Groups,50.1106444,8.6820917,meetup,2128,https://secure.meetupstatic.com/photos/event/b/4/5/f/600_495406175.jpeg
Game Tech - Amazon Lumberyard - Sul Brasil,"Florianópolis, Brazil",https://www.meetup.com/gametech/,Game Tech,-27.5973002,-48.5496098,meetup,,
Gen AI Philippines,"Philippines, Makati",https://www.facebook.com/photo?fbid=122138560730255386&set=a.122103541016255386,General AWS User Groups,14.5567949,121.0211226,other,,
Greater Philadelphia AWS User Group,"Philadelphia, USA",https://www.meetup.com/gpawsug/,General AWS User Groups,39.9527237,-75.1635262,meetup,1659,https://secure.meetupstatic.com/photos/event/8/d/f/6/600_490356342.jpeg
Greater Philadelphia Area User Group,"Philadelphia, Pennsylvania, USA",https://www.meetup.com/gpawsug/,General AWS User Groups,39.9527237,-75.1635262,meetup,1659,https://secure.meetupstatic.com/photos/event/8/d/f/6/600_490356342.jpeg
Grenoble AWS User Group,"Grenoble, France",https://www.meetup.com/Grenoble-AWS-User-Group/,General AWS User Groups,45.1875602,5.7357819,meetup,319,https://secure.meetupstatic.com/photos/event/c/d/1/c/600_497632508.jpeg
Hamburg AWS User Group,"Hamburg, Germany",https://www.meetup.com/awsugHH/,General AWS User Groups,53.550341,10.000654,meetup,2632,https://secure.meetupstatic.com/photos/event/8/4/3/b/600_495813851.jpeg
Hampton Roads Amazon Web Services User Group,"Virginia Beach, USA",https://www.meetup.com/Hampton-Roads-Amazon-Web-Services-User-Group/,General AWS User Groups,36.8496579,-75.9760751,meetup,355,https://secure.meetupstatic.com/photos/event/2/6/3/7/600_522069783.jpeg
Ilmenau AWS Meetup,"Ilmenau, Germany",https://www.meetup.com/Ilmenau-Amazon-Web-Services-Meetup/,General AWS User Groups,50.6867695,10.9142385,meetup,416,https://secure.meetupstatic.com/photos/event/6/4/7/b/600_515545723.jpeg
Indy AWS,"Indianapolis, Indiana, USA",https://www.meetup.com/IndyAWS/,General AWS User Groups,39.7683331,-86.1583502,meetup,1271,https://secure.meetupstatic.com/photos/event/5/d/5/7/600_509963895.jpeg
Ipswich AWS User Group,"Ipswich, United Kingdom",https://www.meetup.com/Ipswich-AWS-User-Group,General AWS User Groups,52.0579324,1.1528095,meetup,363,https://secure.meetupstatic.com/photos/event/b/e/4/1/600_519828705.jpeg
Iraq AWS Meetup,"Baghdad, Iraq",https://www.meetup.com/iraq-aws-meetup-group/,General AWS User Groups,33.036132,44.263504,meetup,1828,https://secure.meetupstatic.com/photos/event/d/c/5/f/600_500696415.jpeg
Iraq Cloud,"Baghdad, Iraq",https://www.facebook.com/groups/iraqcloud,General AWS User Groups,33.036132,44.263504,other,,
JAWG-UG Storage (Storage-JAWS),"Tokyo, Japan",https://storage-jaws.connpass.com/,General AWS User Groups,35.6768601,139.7638947,other,,
JAWS User Groups,Tokyo,https://jaws-ug.jp/,General AWS User Groups,35.6768601,139.7638947,other,,
JAWS-UG AI/ML,Tokyo,https://jawsug-ai.connpass.com/,AI/ML,35.6768601,139.7638947,other,,
JAWS-UG Aizu,Aizu,https://jaws-tohoku.doorkeeper.jp/,General AWS User Groups,46.9465815,7.4393978,other,,
JAWS-UG Akita,Akita,https://jaws-tohoku.doorkeeper.jp/,General AWS User Groups,39.6898802,140.342608,other,,
JAWS-UG Aomori,Aomori,https://jaws-tohoku.doorkeeper.jp/,General AWS User Groups,40.886943,140.590121,other,,
JAWS-UG Architecture,Tokyo,https://jawsug-arch.connpass.com/,General AWS User Groups,35.6768601,139.7638947,other,,
JAWS-UG Beginners,Tokyo,https://jawsug-bgnr.connpass.com/,General AWS User Groups,35.6768601,139.7638947,other,,
JAWS-UG BigData (BigData-JAWS),Tokyo,https://jawsug-bigdata.connpass.com/,"Analytics, Database",35.6768601,139.7638947,other,,
